%time,field.x,field.y,field.theta
1541000000,-0.529921837137,-0.0868816163436,-2.86727958193
1561000000,-0.529921837137,-0.0868816163436,-2.86727958193
1581000000,-0.518217669756,-0.0880181433656,-2.85749060805
1604000000,-0.512362666784,-0.0885417385537,-2.8525965482
1621000000,-0.506504808912,-0.0890361584173,-2.84770268686
1642000000,-0.500645482241,-0.0895017670065,-2.84280915889
1661000000,-0.49478364192,-0.0899396115367,-2.83791583177
1681000000,-0.488920150144,-0.0903484901587,-2.83302282823
1701000000,-0.483054792995,-0.0907282848346,-2.82813001864
1719000000,-0.483054481771,-0.0907281836683,-2.82812998682
1741000000,-0.471319395537,-0.0914007029272,-2.81834524341
1761000000,-0.465450060222,-0.0916934577213,-2.81345327419
1781000000,-0.459579060557,-0.0919569775438,-2.80856150066
1801000000,-0.45957854657,-0.0919567992744,-2.80856144178
1821000000,-0.447834926761,-0.0923970829554,-2.7987787835
1841000000,-0.44196203003,-0.0925736540096,-2.79388783592
1861000000,-0.436088113761,-0.0927209975194,-2.78899708475
1881000000,-0.430213832538,-0.0928392969453,-2.78410658796
1901000000,-0.424339761184,-0.0929287175226,-2.77921639719
1921000000,-0.418465352104,-0.092989002011,-2.77432643028
1942000000,-0.41259120912,-0.093020328943,-2.76943673949
1961000000,-0.40671680857,-0.0930224404073,-2.76454724579
1981000000,-0.400843163819,-0.0929956829491,-2.75965805127
2001000000,-0.400842737102,-0.0929955111472,-2.75965800182
2021000000,-0.38909742477,-0.0928537961292,-2.74988031069
2041000000,-0.383224395438,-0.0927392525888,-2.74499184989
2061000000,-0.377353456077,-0.0925963754366,-2.7401036366
2081000000,-0.371483971997,-0.0924246683743,-2.73521561848
2101000000,-0.365614834326,-0.0922235995426,-2.73032784679
2121000000,-0.359747413782,-0.0919937068734,-2.72544035933
2141000000,-0.353881262193,-0.0917347413525,-2.720553091
2161000000,-0.348017438871,-0.0914456427504,-2.71566607643
2181000000,-0.342154438942,-0.0911286406183,-2.71077927074
2201000000,-0.336293544614,-0.0907827791143,-2.70589270036
2221000000,-0.33043538746,-0.0904068129928,-2.7010063971
2241000000,-0.33043538746,-0.0904068129928,-2.7010063971
2261000000,-0.318724733475,-0.089569305807,-2.69123443541
2281000000,-0.312872819258,-0.0891075511712,-2.68634884713
2301000000,-0.307024209056,-0.0886159383659,-2.68146349276
2321000000,-0.306406985678,-0.0885062101477,-2.68113648615
2341000000,-0.306410619556,-0.0885036285402,-2.68113918064
2361000000,-0.300522136215,-0.0867629615993,-2.67868441678
2381000000,-0.293718257324,-0.0846622060291,-2.67426329983
2401000000,-0.287093350447,-0.0826309604133,-2.67161950471
2417000000,-0.287370937163,-0.0827716218831,-2.67239579962
2441000000,-0.27410943206,-0.0786424451158,-2.66710840266
2461000000,-0.267500611171,-0.0765587407064,-2.66446490727
2481000000,-0.260882845368,-0.0744498017485,-2.66182151811
2501000000,-0.254285849004,-0.072329999541,-2.65917825972
2521000000,-0.247670391033,-0.0701808652746,-2.65653510993
2541000000,-0.241084610325,-0.0680266407441,-2.6538921055
2561000000,-0.234489103064,-0.0658465345856,-2.65124919767
2581000000,-0.227904929181,-0.063651688674,-2.64860641273
2601000000,-0.227904929181,-0.063651688674,-2.64860641273
2621000000,-0.214771678687,-0.0592175244306,-2.64332124614
2641000000,-0.208215717084,-0.056975574447,-2.64067884957
2661000000,-0.201660543139,-0.0547132234453,-2.63803655046
2681000000,-0.201660543139,-0.0547132234453,-2.63803655046
2701000000,-0.188575833724,-0.0501400436394,-2.63275233723
2721000000,-0.18204269208,-0.047826174759,-2.63011043764
2741000000,-0.175517664631,-0.0454969731248,-2.62746863371
2761000000,-0.168997399809,-0.0431494892381,-2.62482718641
2781000000,-0.16248506438,-0.0407855119917,-2.62218562661
2801000000,-0.155978564029,-0.0384038453129,-2.61954417525
2821000000,-0.149479544656,-0.0360043754501,-2.61690284589
2841000000,-0.142986590076,-0.0335883822175,-2.61426164442
2861000000,-0.136499039974,-0.0311544152158,-2.6116205284
2881000000,-0.130018740352,-0.0287035419204,-2.60897953915
2901000000,-0.123545563743,-0.0262356852264,-2.60633868373
2921000000,-0.117079278646,-0.0237496403821,-2.60369793761
2941000000,-0.110619522441,-0.0212473119052,-2.60105731335
2961000000,-0.10384286605,-0.0186010890515,-2.59828363808
2981000000,-0.0977204597335,-0.0161901481965,-2.59577636884
3001000000,-0.0912801456468,-0.0136354798651,-2.59313610648
3021000000,-0.0848487009628,-0.0110639243427,-2.59049592079
3041000000,-0.0784232742364,-0.00847572785953,-2.58785587582
3061000000,-0.0720047868611,-0.00587037803621,-2.58521593467
3081000000,-0.0655938806947,-0.00324718585562,-2.58257612676
3101000000,-0.0591893985287,-0.000607588985976,-2.57993603466
3121000000,-0.0527922370866,0.0020489542582,-2.5772964376
3141000000,-0.0464020487025,0.00472266598354,-2.57465369599
3161000000,-0.0400190583647,0.00741341277168,-2.57201431402
3181000000,-0.0336435706863,0.0101210074413,-2.56937505444
3201000000,-0.0272751709665,0.0128457246115,-2.56673589701
3225000000,-0.0272751709665,0.0128457246115,-2.56673589701
3241000000,-0.0145607400079,0.0183458483283,-2.56145792595
3261000000,-0.00821477401276,0.0211212276443,-2.55881911063
3281000000,-0.00187661432552,0.023914383356,-2.55618039293
3302000000,0.0044543194559,0.0267235280624,-2.55354180162
3321000000,0.0107776889623,0.0295495363468,-2.55090331321
3341000000,0.0170934245202,0.032392369882,-2.54826493671
3361000000,0.0234016128039,0.0352520962205,-2.54562666283
3381000000,0.0297021634645,0.0381286640209,-2.54298849836
3401000000,0.0359948494727,0.0410219273468,-2.54035044487
3421000000,0.042279648941,0.0439318787275,-2.5377125013
3441000000,0.0485566900853,0.0468586149658,-2.53507466324
3457000000,0.0485566900853,0.0468586149658,-2.53507466324
3481000000,0.0610870523737,0.0527621701233,-2.5297993087
3503000000,0.0673396981525,0.0557396434633,-2.52716178957
3521000000,0.0735849803673,0.0587331042427,-2.52452438004
3541000000,0.0798220612387,0.0617430839861,-2.52188707642
3561000000,0.0798220809748,0.0617430980617,-2.52188707515
3581000000,0.0922715249304,0.0678136808108,-2.51661278328
3601000000,0.0984841596341,0.0708733771352,-2.51397579339
3621000000,0.104688645609,0.07394966405,-2.51133890834
3643000000,0.110884765656,0.0770423922827,-2.50870212706
3662000000,0.110884901011,0.0770424915343,-2.50870212825
3681000000,0.123252244618,0.0832774549423,-2.50342887831
3701000000,0.129423269116,0.0864195605132,-2.50079240681
3721000000,0.135585905023,0.0895781258305,-2.49815603926
3741000000,0.141740036783,0.0927530737432,-2.49551977412
3761000000,0.147885037444,0.095945077691,-2.49288360501
3781000000,0.147885132717,0.0959451498958,-2.492883609
3802000000,0.160150446393,0.102376714537,-2.48761159185
3821000000,0.1662701217,0.10561694855,-2.48497573031
3841000000,0.172381141943,0.108873495489,-2.48233997184
3861000000,0.178483359535,0.112146250393,-2.47970431055
3881000000,0.184576333784,0.115436035055,-2.47706876242
3901000000,0.190660925685,0.11874121287,-2.47443329472
3921000000,0.196736733784,0.122062644581,-2.47179793768
3942000000,0.202803615026,0.125400223649,-2.46916268069
3961000000,0.208860879997,0.128754578018,-2.46652752457
3981000000,0.214909739276,0.132124337857,-2.46389232272
4001000000,0.22094953305,0.135510166258,-2.4612561901
4021000000,0.22698022651,0.138912039106,-2.45862131538
4041000000,0.233001828414,0.142329972587,-2.45598654753
4059000000,0.23300186436,0.142330001979,-2.45598655287
4082000000,0.245016882846,0.149214520655,-2.45071729753
4101000000,0.25101084273,0.152680388449,-2.44808280961
4121000000,0.256994927806,0.156162888365,-2.44544841739
4141000000,0.262970213089,0.159660559618,-2.44281412061
4161000000,0.268936129632,0.163174118858,-2.44017992901
4181000000,0.274892616262,0.166703523629,-2.43754581861
4201000000,0.28083968623,0.17024879486,-2.43491181556
4221000000,0.286777253437,0.173809869014,-2.43227790685
4241000000,0.29270522797,0.177386678274,-2.42964407677
4261000000,0.298623637937,0.180979256107,-2.427010347
4281000000,0.304532410981,0.1845875495,-2.42437670979
4301000000,0.310431503171,0.188211529613,-2.42174315676
4321000000,0.316320913769,0.191851205443,-2.41910971157
4341000000,0.322200561152,0.19550651492,-2.41647635845
4361000000,0.328070402521,0.19917742962,-2.41384307909
4381000000,0.333930424867,0.202863947578,-2.41120989907
4402000000,0.33978056631,0.206566023217,-2.40857680937
4421000000,0.345620181816,0.210284312888,-2.40594380932
4441000000,0.351450458454,0.214017434703,-2.40331091568
4461000000,0.35727012207,0.217766710471,-2.40067822891
4481000000,0.363080365001,0.221530773091,-2.39804548551
4501000000,0.3688805419,0.225310275332,-2.39541284121
4521000000,0.374670596489,0.229105173825,-2.39278028522
4541000000,0.380450494377,0.232915446384,-2.39014780634
4557000000,0.380450506039,0.232915457276,-2.39014782779
4581000000,0.39197968742,0.240582029515,-2.38488315331
4601000000,0.397728880267,0.244438263764,-2.38225093462
4621000000,0.403467142144,0.24831043264,-2.37961881842
4641000000,0.409195667204,0.252197167331,-2.37698676746
4661000000,0.414913808171,0.256099124017,-2.37435482836
4681000000,0.420620879975,0.26001690929,-2.37172297292
4699000000,0.420620879975,0.26001690929,-2.37172297292
4721000000,0.432289248444,0.268095086383,-2.36632665982
4742000000,0.437679756553,0.271860294194,-2.36382783429
4761000000,0.44334598341,0.275838682195,-2.3611963479
4782000000,0.449000916497,0.279831291766,-2.35856488851
4801000000,0.454644483339,0.283838215574,-2.35593353528
4821000000,0.460278057656,0.287860834145,-2.35330226786
4841000000,0.465900865569,0.291898387156,-2.3506710549
4861000000,0.471512895312,0.295950872918,-2.34803993724
4881000000,0.477113448148,0.300018884386,-2.34540889861
4901000000,0.482703777726,0.304101120213,-2.34277793015
4921000000,0.488283194484,0.30819818282,-2.34014706933
4941000000,0.493851705431,0.312310089549,-2.3375162889
4961000000,0.499409210917,0.316436747809,-2.33488555807
4981000000,0.504955714817,0.320578172014,-2.3322549367
5002000000,0.504955714817,0.320578172014,-2.3322549367
5021000000,0.516014832192,0.328905745379,-2.32699388193
5041000000,0.52152737435,0.333091839809,-2.32436346424
5061000000,0.527029384607,0.337291920171,-2.3217331577
5081000000,0.532520213694,0.341506630183,-2.31910292756
5102000000,0.532520213694,0.341506630183,-2.31910292756
5121000000,0.543468101951,0.349979737967,-2.31384266456
5141000000,0.548924398609,0.354238667284,-2.31121262854
5161000000,0.554370007034,0.358511466684,-2.30858268803
5181000000,0.554370007034,0.358511466684,-2.30858268803
5201000000,0.565226962965,0.367100347103,-2.30332301245
5221000000,0.570637607154,0.371417022845,-2.30069331071
5241000000,0.576037387005,0.375747417138,-2.29806365093
5262000000,0.581425622193,0.380092140281,-2.29543409902
5281000000,0.58680159187,0.384451755629,-2.29280458293
5301000000,0.59216663094,0.388825047571,-2.29017517856
5321000000,0.597520004769,0.393212564909,-2.2875458461
5341000000,0.602861671161,0.397614269699,-2.28491654831
5361000000,0.608458882684,0.402251441205,-2.28215461228
5381000000,0.613509169856,0.406460682142,-2.27965815755
5401000000,0.618816126439,0.410905683446,-2.27702914183
5421000000,0.624109978633,0.415363100235,-2.27440016343
5441000000,0.629392608272,0.419835330018,-2.27177121883
5461000000,0.634663328822,0.424321579199,-2.2691423634
5481000000,0.639922087867,0.428821796827,-2.26651355728
5501000000,0.645168866575,0.433335971769,-2.26388485985
5521000000,0.650403619964,0.437864061506,-2.26125623136
5541000000,0.655626301012,0.442406020618,-2.25862762993
5561000000,0.660836885353,0.446961830913,-2.2559991166
5581000000,0.666035334049,0.451531456392,-2.25337064962
5601000000,0.671221622011,0.456114877897,-2.2507422911
5621000000,0.67639571115,0.46071206021,-2.24811399951
5641000000,0.681557542374,0.465322941603,-2.24548573115
5661000000,0.686707097909,0.469947511433,-2.24285754974
5681000000,0.691844339298,0.474585733215,-2.24022941177
5701000000,0.69696924171,0.479237587486,-2.23760138201
5721000000,0.702081767528,0.483903038549,-2.23497341712
5741000000,0.702611997017,0.484448767571,-2.23481247492
5761000000,0.702624662931,0.484471768409,-2.23473507784
5781000000,0.699600664233,0.476907257305,-2.22938924651
5801000000,0.696339644479,0.468630832756,-2.22313453329
5821000000,0.693120352792,0.460324881156,-2.21944197748
5841000000,0.689777362227,0.451777073351,-2.21368507214
5861000000,0.68645932682,0.443172221436,-2.20792790724
5881000000,0.683215788082,0.4345857567,-2.202170753
5901000000,0.679974517742,0.425914513517,-2.19641320089
5921000000,0.676632808211,0.416799145351,-2.19036561467
5941000000,0.67369676458,0.408586122335,-2.18489808728
5961000000,0.670632325603,0.399894143745,-2.17914021845
5981000000,0.667641809167,0.391214339534,-2.17338246976
6001000000,0.664663378306,0.382465295413,-2.1676243278
6021000000,0.661736411571,0.373699399255,-2.16186605761
6041000000,0.658897783189,0.364967961985,-2.15610796215
6061000000,0.656090987029,0.356195929675,-2.15034960481
6081000000,0.653351696717,0.34743310379,-2.1445912831
6101000000,0.650631932738,0.338605204075,-2.13883255827
6121000000,0.647994643554,0.329810682975,-2.1330740096
6141000000,0.645380364297,0.320955740085,-2.12731507018
6161000000,0.64282540827,0.312098071442,-2.12155602547
6181000000,0.640343968327,0.303256856026,-2.11579718119
6201000000,0.637904573515,0.294390774127,-2.11003808074
6221000000,0.635518041496,0.285512854598,-2.10427888972
6241000000,0.633188531983,0.276630502491,-2.09851975419
6261000000,0.63090270125,0.267720986283,-2.092760229
6281000000,0.628671427837,0.258803144193,-2.08700061381
6301000000,0.628671427837,0.258803144193,-2.08700061381
6322000000,0.624372078668,0.240943083487,-2.07548157156
6341000000,0.622299586376,0.231993457004,-2.06972184729
6361000000,0.620280292262,0.223034209709,-2.0639621923
6377000000,0.620278415273,0.223030706506,-2.06396189033
6401000000,0.61639455013,0.205074992153,-2.05244203242
6421000000,0.61453126607,0.196081359131,-2.04668214539
6441000000,0.614530859827,0.196080568398,-2.04668198799
6461000000,0.610874379428,0.177610168024,-2.03487182503
6481000000,0.609255384364,0.169033456704,-2.02940165705
6505000000,0.607601256115,0.159998053461,-2.02364141089
6521000000,0.605998895085,0.150952536213,-2.01788086812
6541000000,0.604451546955,0.141897167358,-2.01212058315
6561000000,0.602954146007,0.132833404885,-2.006359629
6581000000,0.601509365958,0.123761120798,-2.00059686465
6601000000,0.600117261338,0.114680634687,-1.99483639768
6621000000,0.59877774849,0.105591963029,-1.98907391197
6641000000,0.597493252995,0.0964944589277,-1.9833133398
6661000000,0.596259108442,0.0873904307585,-1.97754738088
6681000000,0.595077715728,0.0782791999689,-1.97178029624
6701000000,0.593949115329,0.0691610680618,-1.96601957366
6721000000,0.592873330005,0.0600362999129,-1.96025563469
6741000000,0.591850413477,0.0509052402855,-1.95449482553
6761000000,0.590880391804,0.0417681733627,-1.94872727425
6781000000,0.589963304281,0.0326254197572,-1.94295959894
6805000000,0.589099171451,0.0234772569372,-1.93719867624
6821000000,0.588290419738,0.0143230876785,-1.93143434009
6833000000,0.588290419738,0.0143230876785,-1.93143434009
6861000000,0.586827221407,-0.00399745281793,-1.91990539236
6881000000,0.586175208014,-0.013164141433,-1.91414434752
6901000000,0.585576284985,-0.022334697277,-1.90837658148
6921000000,0.585030473709,-0.0315088126488,-1.90261548844
6941000000,0.584537791603,-0.0406861858839,-1.89684773735
6961000000,0.584098258616,-0.0498665024758,-1.89108660441
6981000000,0.583711890233,-0.0590494554368,-1.88531888495
7001000000,0.583378694828,-0.068234754424,-1.87955122908
7021000000,0.583101127808,-0.0774228593718,-1.87379005669
7041000000,0.582874326456,-0.0866118962533,-1.86802563511
7062000000,0.582874326456,-0.0866118962533,-1.86802563511
7081000000,0.582580343722,-0.104993909254,-1.85649672614
7102000000,0.582513174065,-0.114186278936,-1.85072927323
7121000000,0.582501686809,-0.123379848704,-1.84496806968
7141000000,0.582501686809,-0.123379848704,-1.8449649715
7161000000,0.582635636415,-0.14176640231,-1.83344263206
7181000000,0.582586651639,-0.142788825473,-1.83300965161
7201000000,0.582802421382,-0.151405542336,-1.82737095077
7221000000,0.582922781514,-0.160915236882,-1.81943582376
7241000000,0.583264285615,-0.169765666624,-1.81583872106
7261000000,0.583574797615,-0.178955518337,-1.81007755976
7281000000,0.583939453193,-0.188139703297,-1.80431343927
7297000000,0.583939453193,-0.188139703297,-1.80431343927
7321000000,0.584819500588,-0.206516925865,-1.7927855271
7341000000,0.585342737748,-0.215698251735,-1.78702441817
7361000000,0.585914958817,-0.224883853467,-1.78125751495
7381000000,0.586572265008,-0.234517522837,-1.77521014966
7401000000,0.587223312292,-0.243234976188,-1.7697299509
7421000000,0.587956239333,-0.252405553219,-1.76396342361
7441000000,0.588742527293,-0.261568784509,-1.75820244425
7461000000,0.589584172323,-0.27072909847,-1.75243881542
7481000000,0.590479006116,-0.279883641232,-1.74667790209
7501000000,0.591424048042,-0.289034047033,-1.74091202446
7521000000,0.592422142519,-0.29817850531,-1.73514634708
7541000000,0.593473268139,-0.307316557778,-1.7293855487
7561000000,0.594577200766,-0.316449050797,-1.72362000609
7581000000,0.59573402593,-0.32557489697,-1.71785929477
7601000000,0.596943629479,-0.334694281231,-1.71209631862
7622000000,0.598205999571,-0.343806704116,-1.70633570271
7641000000,0.599521070558,-0.352912033226,-1.70057068286
7661000000,0.600888821339,-0.362009793915,-1.69480594622
7680000000,0.600888821339,-0.362009793915,-1.69480594622
7702000000,0.603784686316,-0.380182014588,-1.68328306497
7721000000,0.605310159125,-0.389255516033,-1.67752077583
7741000000,0.606890654715,-0.398320667222,-1.6717604961
7756000000,0.606890662643,-0.398320588072,-1.67175689906
7781000000,0.60691339899,-0.398888846541,-1.67162821233
7801000000,0.608259993603,-0.409156130828,-1.66375643992
7821000000,0.609792652508,-0.420325531611,-1.65787713612
7841000000,0.611432929503,-0.430986963912,-1.6544729283
7861000000,0.613099087266,-0.442084940803,-1.64858884119
7881000000,0.614826609916,-0.453226838861,-1.64270871207
7901000000,0.616618047929,-0.464386642483,-1.63682664996
7921000000,0.618478865401,-0.475535460607,-1.63094472642
7941000000,0.620369311094,-0.486645551048,-1.62507975204
7961000000,0.622270770781,-0.497790207516,-1.61923331722
7981000000,0.624216627152,-0.50890791406,-1.61339912955
8001000000,0.626226766097,-0.519982982047,-1.60756658788
8021000000,0.628301580124,-0.531056930463,-1.60173360538
8041000000,0.630441699483,-0.542107268066,-1.59590033811
8061000000,0.632646369475,-0.553160699145,-1.59006660748
8081000000,0.634919280481,-0.564195298554,-1.58423251509
8101000000,0.637253855084,-0.575205696479,-1.57839817048
8122000000,0.639653046339,-0.586205836952,-1.57256340627
8141000000,0.642120028355,-0.597190800856,-1.5667282955
8161000000,0.644648246813,-0.608157842861,-1.56089288081
8182000000,0.647240927987,-0.61911516144,-1.55505700172
8201000000,0.650031077366,-0.63059708195,-1.54892767764
8221000000,0.652621855952,-0.64097527902,-1.54338437713
8241000000,0.655407555762,-0.651880954455,-1.53754732794
8261000000,0.658256803381,-0.662768196151,-1.53171013368
8283000000,0.66116999346,-0.673638898992,-1.52587252883
8301000000,0.664146980683,-0.684491589719,-1.52003462783
8321000000,0.667187726248,-0.695327111591,-1.51419625885
8341000000,0.670295294412,-0.706143958235,-1.50835753662
8361000000,0.67346313956,-0.716942013656,-1.50251858025
8381000000,0.6766943968,-0.727721175968,-1.49667921406
8401000000,0.679988949511,-0.738480954138,-1.49083949812
8421000000,0.683346690837,-0.749221030245,-1.4849994939
8441000000,0.686767533175,-0.759941304484,-1.47915901898
8463000000,0.69025131324,-0.770640870435,-1.47331831957
8482000000,0.693797966606,-0.781319906645,-1.46747714874
8501000000,0.697407347537,-0.791977761152,-1.46163562988
8521000000,0.701079302637,-0.802613792701,-1.45579389355
8541000000,0.704813752723,-0.81322803677,-1.44995174861
8561000000,0.708610555716,-0.823819983044,-1.44410925982
8581000000,0.712469570848,-0.834389173205,-1.43826649371
8601000000,0.716390710622,-0.844935560003,-1.43242325385
8621000000,0.720373810761,-0.855458535581,-1.42657967073
8641000000,0.724418714802,-0.86595759635,-1.42073588238
8661000000,0.728525322835,-0.876432631297,-1.41489168677
8681000000,0.732693484028,-0.886883196792,-1.40904715244
8702000000,0.736923045269,-0.89730886066,-1.40320234966
8721000000,0.741213899989,-0.907709477175,-1.39735707091
8741000000,0.745565854052,-0.918084404784,-1.39151159636
8761000000,0.749978805385,-0.928433538595,-1.38566564532
8781000000,0.754452582966,-0.938756399501,-1.37981935825
8801000000,0.754452582966,-0.938756399501,-1.37981935825
8821000000,0.763584776198,-0.959321305195,-1.36812610349
8842000000,0.764023695507,-0.960499229063,-1.36770326302
8861000000,0.768236545117,-0.969593032108,-1.36203896648
8881000000,0.772947916429,-0.979784959597,-1.35634659441
8904000000,0.777723686209,-0.989970698611,-1.35049887346
8921000000,0.782546168362,-1.00007110797,-1.34465064878
8941000000,0.787686365722,-1.01070509856,-1.33850811391
8961000000,0.792398114814,-1.02029707169,-1.33295334218
8981000000,0.79741252772,-1.03036737868,-1.32710413456
9001000000,0.80248895128,-1.04042048659,-1.3212545518
9021000000,0.80762368974,-1.05044008005,-1.31540464398
9041000000,0.812814946789,-1.06042000753,-1.30955457245
9061000000,0.812815816233,-1.0604232453,-1.3095544932
9082000000,0.82337425827,-1.08029021963,-1.29785339273
9101000000,0.828742364569,-1.09018110529,-1.29200220488
9121000000,0.834168158733,-1.10003835934,-1.28615069766
9141000000,0.839651396934,-1.1098615548,-1.28029895577
9161000000,0.845192134805,-1.11965125715,-1.27444698197
9181000000,0.850790458293,-1.12940806281,-1.26859469479
9201000000,0.850790857116,-1.12940933717,-1.26859452755
9221000000,0.862162831374,-1.14882265658,-1.25688939487
9241000000,0.867935836762,-1.15847775012,-1.25103618404
9261000000,0.873762620639,-1.16809969977,-1.24518761479
9281000000,0.879645976706,-1.17768695752,-1.23933377868
9302000000,0.885585670554,-1.18723910166,-1.23347946245
9321000000,0.891581700535,-1.19675637311,-1.2276248388
9341000000,0.89763367106,-1.20623789933,-1.22177008693
9361000000,0.903741460528,-1.21568358977,-1.21591494365
9381000000,0.909904821843,-1.22509301191,-1.21005949838
9401000000,0.916123543279,-1.23446583858,-1.20420384232
9421000000,0.922397427295,-1.24380178502,-1.19834770692
9441000000,0.928726253893,-1.25310051347,-1.19249145451
9461000000,0.935109792508,-1.26236166701,-1.18663472306
9483000000,0.941547823481,-1.27158492333,-1.18077769427
9501000000,0.948040175628,-1.28077008161,-1.17492055718
9521000000,0.954586554683,-1.28991665026,-1.16906294039
9541000000,0.961189797119,-1.29902323989,-1.16320520649
9561000000,0.967843641161,-1.30809189207,-1.1573475966
9581000000,0.974550900691,-1.31712115323,-1.15148930014
9601000000,0.981311131229,-1.3261102421,-1.14563488132
9621000000,0.988124429845,-1.33505957861,-1.13977581829
9641000000,0.994990458049,-1.3439686132,-1.13391666453
9661000000,1.00190894069,-1.35283694899,-1.12805722813
9681000000,1.00190892024,-1.35283690599,-1.12805703245
9703000000,1.01590229558,-1.37045024678,-1.11633731744
9721000000,1.02297667895,-1.37919458028,-1.11047684372
9741000000,1.03010544594,-1.3878955432,-1.1046160891
9761000000,1.03728259512,-1.39655577407,-1.09875526254
9781000000,1.04451355126,-1.40517186304,-1.09289405798
9801000000,1.05179231903,-1.4137464781,-1.08703258349
9821000000,1.05912172147,-1.4222782186,-1.08117093848
9841000000,1.0665011665,-1.43076614906,-1.07530881864
9861000000,1.07393081614,-1.43921074632,-1.06944642877
9881000000,1.08141020062,-1.44761131567,-1.06358397957
9901000000,1.08141021609,-1.44761134343,-1.06358387508
9921000000,1.0965171767,-1.46427926154,-1.05185807839
9941000000,1.10414422716,-1.47254601965,-1.04599483905
9962000000,1.11181998288,-1.48076760621,-1.04013112765
9981000000,1.11954416251,-1.48894370554,-1.0342671552
10001000000,1.12731651361,-1.49707405571,-1.0284031397
10021000000,1.13513676073,-1.50515836041,-1.02253876077
10041000000,1.14300462288,-1.51319631926,-1.01667401823
10061000000,1.15131583867,-1.5215856404,-1.01051394968
10081000000,1.15888518723,-1.52913163631,-1.00494407897
10101000000,1.16689468264,-1.53702875851,-0.999078702511
10121000000,1.17494973125,-1.5448777061,-0.993213079987
10141000000,1.18305436768,-1.55267813827,-0.987347195177
10161000000,1.19120227037,-1.56043235668,-0.981481182299
10180000000,1.19120215963,-1.56043219143,-0.981480958096
10201000000,1.20763712838,-1.57579402491,-0.969748306333
10223000000,1.20850808048,-1.57669982489,-0.969317165895
10241000000,1.21614646224,-1.58372235137,-0.9617853454
10261000000,1.22447758288,-1.59128031019,-0.955919950743
10281000000,1.23262784059,-1.59847318787,-0.952063064921
10301000000,1.24104852029,-1.60593172425,-0.946195602656
10321000000,1.24947131398,-1.61328868481,-0.940327660857
10341000000,1.25798352444,-1.62065861499,-0.934459504074
10361000000,1.26653237791,-1.62796896494,-0.928591352196
10378000000,1.26653602565,-1.62797383122,-0.928591235711
10401000000,1.28376836784,-1.64244435743,-0.916854136767
10421000000,1.29288205621,-1.64996373469,-0.91069354009
10441000000,1.30117157291,-1.65671203858,-0.905116136633
10461000000,1.30993330461,-1.66376646616,-0.899246774983
10479000000,1.30993620517,-1.6637701079,-0.899246535839
10501000000,1.32758605805,-1.67772154868,-0.887507343849
10521000000,1.33647134055,-1.68461987868,-0.881637442005
10541000000,1.34539928669,-1.69146798247,-0.875766955267
10561000000,1.35436562379,-1.6982608572,-0.869896619314
10581000000,1.3633729511,-1.70500174975,-0.864025705916
10601000000,1.3724191446,-1.71168829267,-0.858154828776
10621000000,1.38150471315,-1.71832122623,-0.852283869455
10641000000,1.39062939688,-1.72490038206,-0.84641258178
10661000000,1.39979287809,-1.73142552777,-0.840541216044
10681000000,1.40899472752,-1.73789631159,-0.834669399658
10701000000,1.41823485122,-1.74431275589,-0.82879763486
10721000000,1.42751261303,-1.75067429152,-0.822925421163
10741000000,1.43682809829,-1.75698113577,-0.817053264718
10761000000,1.44618288054,-1.763230348,-0.811180656787
10781000000,1.45557216797,-1.76942643588,-0.805307863432
10801000000,1.4649982711,-1.77556723009,-0.799435134009
10821000000,1.47446067153,-1.78165231603,-0.793562087921
10841000000,1.4839588897,-1.7876813261,-0.787688985191
10861000000,1.49349242856,-1.79365388546,-0.781815439646
10881000000,1.50306144355,-1.79957026904,-0.77594197168
10902000000,1.51266730265,-1.80542738447,-0.770068047282
10921000000,1.52230578436,-1.81123032055,-0.764194233595
10941000000,1.53197820439,-1.81697593185,-0.758318503359
10961000000,1.54168482831,-1.82266459711,-0.752444063388
10981000000,1.55142500768,-1.8282958194,-0.746569716336
11001000000,1.56119809799,-1.83386912173,-0.74069493195
11021000000,1.57100438605,-1.83938488309,-0.734820246556
11044000000,1.58084321956,-1.84484262186,-0.728945394963
11061000000,1.59071394338,-1.85024187025,-0.723070109919
11081000000,1.6006165431,-1.85558273414,-0.717194660808
11101000000,1.61055095691,-1.860865268,-0.711319322503
11123000000,1.62051640778,-1.86608890997,-0.705443689779
11141000000,1.63051282116,-1.87125370873,-0.69956803694
11161000000,1.64053945256,-1.87635914905,-0.693691955914
11181000000,1.65059647695,-1.88140548837,-0.687815996535
11201000000,1.66068303685,-1.88639212998,-0.681939611149
11221000000,1.67079927579,-1.89131930125,-0.676063353262
11241000000,1.68094436202,-1.89618644201,-0.670186671565
11261000000,1.6911184106,-1.90099375324,-0.664310123242
11281000000,1.69111819799,-1.90099358711,-0.664309843827
11300000000,1.70132052336,-1.90574063886,-0.658433013045
11321000000,1.72180897666,-1.9150535984,-0.646679072789
11341000000,1.73209430529,-1.9196191121,-0.640801826772
11361000000,1.74240667829,-1.92412385574,-0.634924587936
11380000000,1.74240649573,-1.92412372155,-0.634924304042
11401000000,1.75335771285,-1.92890153587,-0.628907663788
11421000000,1.75339484732,-1.9289284906,-0.628676648514
11441000000,1.75588470618,-1.93073623432,-0.628692325077
11461000000,1.7588857105,-1.93291340313,-0.626636829415
11481000000,1.76138375335,-1.93472545741,-0.62666380562
11501000000,1.76404650447,-1.93665714382,-0.626684401538
11521000000,1.76668317951,-1.93856997268,-0.626704839713
11541000000,1.76934585982,-1.94050176063,-0.626725402954
11561000000,1.77196094824,-1.94239907495,-0.626745685174
11581000000,1.77462353905,-1.9443309609,-0.626766240096
11601000000,1.77724340592,-1.94623191175,-0.626786520778
11622000000,1.77753956037,-1.94643866968,-0.626773585919
11641000000,1.77751470215,-1.94642502799,-0.626776102555
11661000000,1.77039432334,-1.94081171272,-0.625934557522
11681000000,1.76221720098,-1.93439858833,-0.625002644793
11701000000,1.75432781193,-1.9282043461,-0.624246025014
11721000000,1.74613808164,-1.92180483896,-0.623313455902
11741000000,1.73791106402,-1.91539053845,-0.622381138505
11761000000,1.72970933094,-1.90900649289,-0.621448613868
11781000000,1.72143967295,-1.90258580701,-0.620516185925
11801000000,1.71322591712,-1.89621722849,-0.619583721793
11821000000,1.70454531471,-1.88950222098,-0.618603423159
11841000000,1.69668394872,-1.88343499281,-0.61771895393
11861000000,1.68845188564,-1.8770900614,-0.616786572417
11881000000,1.68019423962,-1.87073829089,-0.615854208215
11901000000,1.67195055504,-1.86440840556,-0.614921845082
11921000000,1.66365787696,-1.85805584492,-0.613989552511
11941000000,1.65540227826,-1.85174147791,-0.613057230681
11961000000,1.6470990961,-1.8454055485,-0.612124978643
11981000000,1.63883133202,-1.83910711831,-0.611192703107
12001000000,1.63051797446,-1.83278803852,-0.610260487467
12021000000,1.62220096906,-1.82647841447,-0.609328295881
12041000000,1.61391570382,-1.82020294046,-0.608396072937
12061000000,1.60560679812,-1.81392288348,-0.60746388969
12081000000,1.59730973608,-1.80766298557,-0.606531697421
12101000000,1.58897541864,-1.80138910013,-0.605599582931
12121000000,1.58066659588,-1.79514521805,-0.604667432659
12138000000,1.58064447068,-1.79512989423,-0.60466748751
12161000000,1.5639950253,-1.7826549825,-0.602803302714
12181000000,1.55566862256,-1.77643415156,-0.601871214282
12201000000,1.54733137151,-1.77021769358,-0.600939171939
12221000000,1.53899329482,-1.76401250196,-0.600007123333
12241000000,1.53064224379,-1.75781024216,-0.599075146222
12261000000,1.52229251986,-1.75162071127,-0.598143136698
12281000000,1.51393248702,-1.74543594875,-0.597211197929
12301000000,1.5055708709,-1.73926249934,-0.596279231567
12321000000,1.49720093758,-1.73309459119,-0.595347327124
12341000000,1.48882637772,-1.72693532929,-0.594415444535
12361000000,1.48044766811,-1.72078503007,-0.593483530404
12381000000,1.48044713114,-1.72078466698,-0.593483555993
12401000000,1.46367239596,-1.70850765421,-0.591619784427
12421000000,1.4552756104,-1.70238042946,-0.590687978199
12441000000,1.44687384783,-1.69626160191,-0.589756139128
12461000000,1.43846589818,-1.69015035856,-0.588824370133
12481000000,1.43005265399,-1.68404729764,-0.587892568119
12501000000,1.42163345547,-1.67795197764,-0.586960836246
12521000000,1.41320875964,-1.67186470375,-0.586029071049
12541000000,1.40477827357,-1.66578528071,-0.585097376199
12561000000,1.39634215611,-1.65971381429,-0.584165647588
12581000000,1.3879003465,-1.65365026417,-0.583233989313
12601000000,1.37945290283,-1.64759466885,-0.582302349415
12621000000,1.37099970923,-1.64154695196,-0.581370675267
12641000000,1.36254094427,-1.63550723133,-0.58043907174
12661000000,1.35407640414,-1.62947537302,-0.579507433628
12681000000,1.34560626285,-1.62345149156,-0.578575839856
12701000000,1.33713040622,-1.6174355123,-0.577644237563
12721000000,1.32864903295,-1.6114275652,-0.576712706138
12741000000,1.32016188998,-1.6054274853,-0.57578113945
12761000000,1.31166925956,-1.59943545658,-0.574849643641
12781000000,1.30317086039,-1.59345129636,-0.573918112343
12801000000,1.29466673416,-1.5874756071,-0.572986644883
12821000000,1.28615723472,-1.58150747166,-0.572066430627
12841000000,1.2776420086,-1.57554722987,-0.571134952405
12861000000,1.26912140937,-1.56959511256,-0.570203518344
12881000000,1.26059473766,-1.56365125046,-0.569272079386
12901000000,1.25206297081,-1.55771510975,-0.568340703458
12921000000,1.24352541375,-1.55178682799,-0.567409293803
12941000000,1.23498254106,-1.5458667074,-0.566477955915
12961000000,1.23498266553,-1.54586678674,-0.56647798313
12981000000,1.21787949738,-1.53405060504,-0.56461526496
13001000000,1.20931909855,-1.52815404076,-0.563683966948
13021000000,1.20075378721,-1.52226581352,-0.562752641688
13041000000,1.19218233889,-1.51638523286,-0.561821388348
13061000000,1.18360599487,-1.51051307826,-0.560890099531
13081000000,1.17502553669,-1.50464983873,-0.559958882144
13101000000,1.16643817783,-1.49879376184,-0.559027626516
13121000000,1.15784592082,-1.49294610642,-0.558096442764
13141000000,1.1492478833,-1.48710631935,-0.55716527597
13161000000,1.14064406058,-1.48127439907,-0.556234070312
13181000000,1.13203487387,-1.47545060892,-0.555302909049
13201000000,1.1234201133,-1.46963481844,-0.554371736509
13221000000,1.11480006917,-1.46382720803,-0.553440636324
13241000000,1.10617440136,-1.45802756704,-0.552509496708
13261000000,1.09754343671,-1.4522360979,-0.55157842959
13281000000,1.08890689223,-1.4464526261,-0.550647322694
13301000000,1.08026504717,-1.44067732391,-0.549716288431
13321000000,1.0716177896,-1.43491012244,-0.548785270631
13341000000,1.06296498751,-1.42915094113,-0.547854212421
13361000000,1.05430684274,-1.4233999039,-0.546923198745
13381000000,1.04564324047,-1.41765694077,-0.545992172727
13401000000,1.03697437987,-1.41192217324,-0.545061219549
13421000000,1.0283000081,-1.40619544767,-0.544130225509
13441000000,1.01962038949,-1.40047692475,-0.543199304442
13461000000,1.01093540442,-1.39476653195,-0.542268399583
13481000000,1.00224493601,-1.38906419904,-0.54133745311
13501000000,0.993549248643,-1.38337008571,-0.540406579921
13521000000,0.984848087528,-1.37768403876,-0.539475664891
13541000000,0.976141655768,-1.37200618054,-0.538544794274
13561000000,0.975149172583,-1.37139606464,-0.538506875853
13581000000,0.975112230372,-1.37137906939,-0.538494372329
13601000000,0.981381189805,-1.37479361396,-0.537840957052
13621000000,0.980998671712,-1.37456488434,-0.53770181682
13642000000,0.995164345504,-1.38228540735,-0.536294683822
13661000000,0.995779659509,-1.38260658165,-0.536336129297
13681000000,1.00244908197,-1.38624185146,-0.535620156724
13701000000,1.00953884441,-1.3900892189,-0.534916558532
13721000000,1.01645939115,-1.39382968249,-0.534323510554
13741000000,1.02355475792,-1.39766738607,-0.533619716631
13761000000,1.03070415472,-1.40153039171,-0.532915600656
13779000000,1.03070415472,-1.40153039171,-0.532915600656
13801000000,1.04497059102,-1.40921711682,-0.531507648125
13821000000,1.05213572428,-1.41306921255,-0.530803496809
13841000000,1.05924481605,-1.41688164031,-0.530099652038
13861000000,1.06635660948,-1.4206890093,-0.529395785602
13881000000,1.07352618272,-1.42452357992,-0.528691589745
13901000000,1.08069080746,-1.42834818235,-0.527987369717
13921000000,1.08781076086,-1.43214035016,-0.527283482021
13941000000,1.09493341658,-1.43592746104,-0.526579571927
13962000000,1.1020953624,-1.43973081017,-0.525875338648
13979000000,1.10211007523,-1.43973937011,-0.525875183625
14001000000,1.11638109536,-1.44729499142,-0.524467144714
14021000000,1.12352422368,-1.45106745549,-0.523763048598
14041000000,1.13066049643,-1.45482898481,-0.523059077989
14061000000,1.13781283435,-1.45859352365,-0.522354809486
14081000000,1.14495431773,-1.46234517303,-0.521650829413
14101000000,1.15210709311,-1.46609637655,-0.520946520875
14121000000,1.15925406119,-1.46983764353,-0.520242522416
14141000000,1.16640912662,-1.47357728397,-0.519538706991
14161000000,1.17356143146,-1.47730839903,-0.518834672495
14181000000,1.18071962855,-1.48103663461,-0.518134822296
14201000000,1.18787910819,-1.48475900083,-0.517430473896
14221000000,1.19503923389,-1.48847514371,-0.516726417926
14241000000,1.20220285103,-1.49218668792,-0.516022198278
14261000000,1.20936827037,-1.49589267227,-0.515318120489
14281000000,1.2165376367,-1.49959431494,-0.514613726778
14301000000,1.22370833569,-1.50329013294,-0.513909627581
14321000000,1.23124089727,-1.50716437858,-0.513168022274
14341000000,1.23805861633,-1.51066676254,-0.512501101066
14361000000,1.2452387551,-1.51434814428,-0.511796638429
14381000000,1.25241997098,-1.5180236068,-0.511092496689
14401000000,1.25960316641,-1.52169361652,-0.510388055733
14421000000,1.26678961883,-1.5253588911,-0.509683892881
14441000000,1.27397890421,-1.52901919166,-0.508979413731
14461000000,1.28117057928,-1.5326742701,-0.508275229868
14481000000,1.28836500679,-1.53632432938,-0.507570729667
14501000000,1.29556198186,-1.53996925512,-0.50686621893
14521000000,1.30312114035,-1.54378950635,-0.506124809838
14541000000,1.30996381293,-1.5472435379,-0.505457632388
14561000000,1.31716850107,-1.55087305908,-0.504753387314
14581000000,1.32437570013,-1.55449747148,-0.504048836674
14601000000,1.33158554214,-1.55811680397,-0.503344580188
14621000000,1.33879799881,-1.56173104095,-0.502640007023
14641000000,1.34601299924,-1.56534014337,-0.501935730059
14661000000,1.35323059632,-1.56894414048,-0.501231136248
14681000000,1.36045074087,-1.57254300533,-0.500526838926
14701000000,1.36767346403,-1.57613675512,-0.499822224589
14721000000,1.37489873838,-1.57972537491,-0.49911790703
14741000000,1.38212658419,-1.58330887589,-0.498413272401
14761000000,1.38935697401,-1.58688724315,-0.497708627504
14781000000,1.3965899162,-1.59046048135,-0.497004279819
14801000000,1.40382541602,-1.59402859346,-0.496299768423
14821000000,1.41106359317,-1.59759131103,-0.495595390828
14841000000,1.41830415691,-1.60114914986,-0.494890714128
14861000000,1.42554727203,-1.60470185418,-0.494186328297
14880000000,1.42554690074,-1.60470165363,-0.494186021028
14901000000,1.43279255065,-1.60824921918,-0.493481624054
14921000000,1.44729159617,-1.61532867908,-0.492072482395
14941000000,1.45454482397,-1.61886082272,-0.491368063826
14961000000,1.46180050898,-1.62238778182,-0.490663321194
14981000000,1.4690585656,-1.6259095151,-0.489958567211
15001000000,1.47631934655,-1.62942621211,-0.489254111448
15021000000,1.48358268682,-1.63293778458,-0.488549491763
15041000000,1.49084848266,-1.63644417732,-0.487845016685
15061000000,1.4981168687,-1.63994546205,-0.487140223352
15081000000,1.50538766499,-1.64344154323,-0.486435729148
15101000000,1.51266116173,-1.64693224339,-0.485730907122
15121000000,1.51993685158,-1.65041796315,-0.485026093298
15141000000,1.52721512081,-1.65389856433,-0.484321572156
15161000000,1.53449565887,-1.65737388737,-0.483616885835
15181000000,1.54177889298,-1.66084415825,-0.482912344388
15201000000,1.54906465483,-1.66430928833,-0.482207484259
15221000000,1.55635283884,-1.6677692223,-0.481502924051
15241000000,1.56364357603,-1.67122402889,-0.480798045158
15261000000,1.57093669544,-1.67467361874,-0.480093466376
15281000000,1.57823233778,-1.67811806549,-0.479388568752
15301000000,1.58553037811,-1.68155730407,-0.478683971519
15321000000,1.59283091417,-1.6849913855,-0.47797905528
15341000000,1.60013386091,-1.68842026568,-0.477274439717
15361000000,1.60743929201,-1.69184398293,-0.476569505099
15381000000,1.61474714518,-1.69526250508,-0.475864561171
15401000000,1.62205742433,-1.69867583428,-0.475159918343
15421000000,1.62937014036,-1.7020839763,-0.474455266488
15441000000,1.63668544712,-1.70548668136,-0.473750286513
15461000000,1.64400302243,-1.70888444766,-0.473045624013
15479000000,1.64400291567,-1.70888439288,-0.473045314002
15501000000,1.65864547877,-1.71566408381,-0.471635945667
15520000000,1.658645258,-1.71566397092,-0.471636029179
15541000000,1.67329762521,-1.72242262246,-0.470226626827
15561000000,1.6806273306,-1.72579442238,-0.469541671072
15581000000,1.68062731403,-1.72579441395,-0.469541515585
15601000000,1.69162540909,-1.73084385144,-0.468484167146
15621000000,1.69859280155,-1.73403356169,-0.467812587272
15641000000,1.70593080331,-1.73738735294,-0.467107832401
15661000000,1.71327540509,-1.74073810268,-0.466402922725
15684000000,1.72061816087,-1.74408149992,-0.465698162592
15701000000,1.72796052215,-1.7474182865,-0.464992927709
15721000000,1.73530805057,-1.75075126258,-0.464288149603
15741000000,1.74265713052,-1.75407860875,-0.463583051846
15761000000,1.75000941666,-1.75740115523,-0.462878256398
15781000000,1.75736358665,-1.7607182395,-0.462173141106
15801000000,1.76472043653,-1.76403025987,-0.461468172801
15821000000,1.77207967663,-1.76733707144,-0.460763196022
15841000000,1.77944129426,-1.77063866796,-0.460058210695
15861000000,1.78680541011,-1.77393510936,-0.459353372916
15881000000,1.7941716384,-1.77722620438,-0.4586482149
15901000000,1.80154046044,-1.78051219162,-0.457943360467
15921000000,1.8089114094,-1.78379284026,-0.457238185594
15941000000,1.81628492294,-1.7870683665,-0.45653331464
15961000000,1.82366057689,-1.79033856136,-0.455828123044
15982000000,1.83103876727,-1.79360361978,-0.455123235698
16001000000,1.8384191004,-1.79686334852,-0.454418027628
16021000000,1.84580195292,-1.80011793234,-0.453713124016
16041000000,1.85318703817,-1.80336723092,-0.453008055962
16061000000,1.86057453819,-1.8066113333,-0.452303136209
16081000000,1.86796419332,-1.80985011307,-0.451597895578
16101000000,1.87535632609,-1.81308372732,-0.450892959809
16121000000,1.8827506132,-1.81631201908,-0.450187703083
16141000000,1.89014721305,-1.81953506548,-0.449482438172
16161000000,1.89754626734,-1.82275293502,-0.44877747861
16181000000,1.90494749424,-1.82596549158,-0.448072197789
16201000000,1.91235114449,-1.82917285622,-0.447367222521
16221000000,1.91975701971,-1.83237493346,-0.44666208257
16241000000,1.92716525119,-1.83557178651,-0.44595709172
16261000000,1.93457560236,-1.83876330211,-0.445251622577
16281000000,1.94198840028,-1.84194963699,-0.444546616271
16301000000,1.94940337626,-1.84513066275,-0.443841288367
16321000000,1.95682072587,-1.84830647281,-0.443136266727
16341000000,1.96424029614,-1.85147699436,-0.442431080326
16361000000,1.97166226421,-1.8546419937,-0.441725884414
16381000000,1.97908635398,-1.85780197703,-0.441020526521
16401000000,1.98651276358,-1.86095671816,-0.44031547472
16421000000,1.99394142808,-1.86410618744,-0.439610415285
16441000000,2.00137251311,-1.86725046303,-0.438905033692
16461000000,2.00880567735,-1.87038938421,-0.438199959372
16481000000,2.01624113368,-1.87352273424,-0.437494561151
16501000000,2.02367871225,-1.87665106894,-0.436789158378
16521000000,2.03111875439,-1.87977422909,-0.436083904412
16541000000,2.03198711351,-1.88013564332,-0.436008376824
16561000000,2.03198809669,-1.88014067532,-0.436011443638
16582000000,2.03816163949,-1.88067372493,-0.431004985442
16601000000,2.04479825019,-1.881171286,-0.4256716729
16621000000,2.05117462456,-1.88151651766,-0.422405659508
16641000000,2.05777036544,-1.88192517285,-0.417070507344
16661000000,2.06441473927,-1.88231699655,-0.411735509609
16681000000,2.0710608742,-1.88267473988,-0.406400166207
16701000000,2.07770888126,-1.88299668377,-0.401065102039
16721000000,2.08436128723,-1.88328395453,-0.395729684249
16741000000,2.09101460811,-1.88353332417,-0.390394385824
16761000000,2.09766765394,-1.8837480399,-0.385059217048
16781000000,2.10432344726,-1.88392757874,-0.379723692093
16801000000,2.11097889972,-1.88407077377,-0.374388452513
16821000000,2.11763641547,-1.88417864771,-0.369052859784
16841000000,2.1242935069,-1.88425030382,-0.363717556692
16861000000,2.13095195657,-1.88428649727,-0.358381902183
16881000000,2.13761051843,-1.88428502725,-0.353046531945
16901000000,2.14426894661,-1.88424947778,-0.347711121692
16921000000,2.15092701901,-1.88417803547,-0.342375711416
16941000000,2.15758531965,-1.8840709812,-0.337040965585
16961000000,2.16424273624,-1.88392799306,-0.331705510387
16981000000,2.17089990711,-1.88374936256,-0.326369710472
17001000000,2.17755605399,-1.88353489288,-0.321034055114
17021000000,2.18421119205,-1.88328466047,-0.315698383744
17041000000,2.19086500193,-1.88299863097,-0.310362861609
17061000000,2.19751756068,-1.88267689847,-0.305027163626
17081000000,2.20416842068,-1.88231939017,-0.299691618842
17101000000,2.21081772939,-1.88192622012,-0.294355737486
17121000000,2.21746487605,-1.88149727082,-0.289020177285
17141000000,2.22411007294,-1.88103267463,-0.283684283127
17161000000,2.23075321935,-1.88053071696,-0.278348712788
17182000000,2.23739351575,-1.87999473995,-0.273012814704
17201000000,2.24403094657,-1.8794230569,-0.267677245706
17221000000,2.25066542978,-1.87881571614,-0.2623413478
17243000000,2.257297013,-1.87817279762,-0.257005452856
17261000000,2.26392515764,-1.87749422662,-0.251669895729
17281000000,2.27054998261,-1.87678010201,-0.246334013395
17301000000,2.27717098541,-1.87603036451,-0.240998473455
17321000000,2.28378827351,-1.87524510877,-0.235662611051
17341000000,2.29040137482,-1.87442428841,-0.230327095547
17361000000,2.29701037666,-1.87356799188,-0.224991260261
17384000000,2.30361481789,-1.87267618049,-0.219655776437
17401000000,2.31021512679,-1.8717472942,-0.214319974214
17421000000,2.3168101483,-1.87078459242,-0.208984530403
17441000000,2.32340014445,-1.86978647798,-0.203648771489
17459000000,2.32998499397,-1.86875299373,-0.198313372776
17481000000,2.33656459452,-1.86768418506,-0.192977662525
17501000000,2.34313851527,-1.86658003432,-0.18764231715
17521000000,2.34970668882,-1.86544059685,-0.182307001176
17541000000,2.35626905383,-1.86426592734,-0.176971378476
17561000000,2.36282559425,-1.86305438203,-0.171635732865
17581000000,2.36937568807,-1.86180762599,-0.16630051903
17601000000,2.37624549645,-1.86046165674,-0.160695884819
17621000000,2.38245607579,-1.85921057743,-0.155629418819
17641000000,2.38898585511,-1.85785991338,-0.150294265691
17661000000,2.39550851774,-1.85647441992,-0.144958866834
17681000000,2.40202395456,-1.8550539283,-0.139623851048
17701000000,2.40853205352,-1.85359848856,-0.134288538826
17721000000,2.41503254112,-1.85210812915,-0.128953273465
17741000000,2.42152511735,-1.85058287754,-0.123618399851
17761000000,2.42800974775,-1.8490227961,-0.118283405965
17781000000,2.43448615406,-1.8474279102,-0.112948636449
17801000000,2.44095448369,-1.84579657626,-0.107613579878
17821000000,2.44741382058,-1.84413813718,-0.102281834541
17841000000,2.45386405083,-1.84246943264,-0.0969606199207
17861000000,2.46030490335,-1.84079253427,-0.0916517707075
17881000000,2.46673624429,-1.839107463,-0.0863538616761
17901000000,2.47315823075,-1.83741372029,-0.0810679839516
17921000000,2.47957096971,-1.83568745826,-0.0757836813518
17941000000,2.4859741247,-1.83392860165,-0.0704989450485
17961000000,2.49236767909,-1.83213555179,-0.0652139983705
17981000000,2.49875161195,-1.83030836835,-0.0599286260806
18001000000,2.50512539376,-1.82844708024,-0.0546430214151
18022000000,2.51148916462,-1.82655175705,-0.0493569895483
18041000000,2.51784250234,-1.82462243826,-0.0440706780943
18061000000,2.52418526432,-1.82265917996,-0.0387840889748
18081000000,2.53051742177,-1.82066204212,-0.0334970706012
18101000000,2.53683860003,-1.81863107302,-0.0282098271607
18121000000,2.5431487849,-1.81656633394,-0.022922153235
18141000000,2.54944765892,-1.81446787854,-0.0176342571309
18161000000,2.55573519528,-1.81233410152,-0.0123459298396
18182000000,2.56201104577,-1.81016839206,-0.00705738228938
18201000000,2.56827512539,-1.80796914513,-0.00176840201697
18221000000,2.57452725788,-1.8057364215,0.00352084917042
18241000000,2.58076723227,-1.80346861531,0.00881037110345
18261000000,2.58699491068,-1.80116912594,0.0141002687224
18281000000,2.59321007889,-1.79883634786,0.0193904350339
18302000000,2.59941258722,-1.79647034616,0.0246810363674
18321000000,2.60560226308,-1.79407118632,0.0299719618457
18341000000,2.61177889009,-1.79163893625,0.0352630940002
18361000000,2.6179423244,-1.78917366261,0.040554664002
18381000000,2.62409237443,-1.78667543458,0.0458464374665
18401000000,2.63022887407,-1.78414432132,0.0511386498182
18421000000,2.63635164414,-1.7815803935,0.0564310624386
18441000000,2.6424605158,-1.77898372219,0.0617238541338
18461000000,2.6485553059,-1.77635438027,0.0670169036722
18481000000,2.65463583506,-1.77369244149,0.0723103931667
18501000000,2.66070194878,-1.77099797873,0.0776042017739
18521000000,2.6667534627,-1.76827106794,0.0828982023581
18541000000,2.67279020399,-1.76551178522,0.0881926453727
18561000000,2.67881200614,-1.76272020708,0.0934873411133
18581000000,2.68481868556,-1.75989641254,0.098782287334
18601000000,2.69081007528,-1.75704048009,0.104077677448
18621000000,2.69678600456,-1.75415248951,0.109373250969
18641000000,2.70274630259,-1.75123252157,0.114669269196
18661000000,2.70869079716,-1.74828065814,0.119965467435
18681000000,2.71461913329,-1.74529532296,0.125262109499
18701000000,2.72053151049,-1.74227991768,0.130558931102
18721000000,2.72642757144,-1.7392328674,0.135856130716
18742000000,2.73230715584,-1.73615425705,0.14115357113
18761000000,2.7381701012,-1.73304417223,0.146451456659
18781000000,2.74401621792,-1.72990270286,0.151749513326
18801000000,2.74984542764,-1.72672992211,0.157048088683
18821000000,2.75565740572,-1.72352594546,0.162346759854
18841000000,2.76145213716,-1.72029083847,0.167645876677
18861000000,2.76722933737,-1.71702471152,0.172945227128
18881000000,2.77298887642,-1.71372764896,0.178244884331
18901000000,2.77873056923,-1.71039974781,0.183544845791
18921000000,2.78445429046,-1.70704109477,0.188845037787
18941000000,2.79015986525,-1.70365178615,0.19414553189
18961000000,2.79584707687,-1.70023192805,0.199446475754
18981000000,2.80151573953,-1.69678162233,0.204747723738
19001000000,2.80716589392,-1.69330092379,0.210049119254
19021000000,2.81279707355,-1.68978999513,0.215350969237
19042000000,2.81840946838,-1.68624885892,0.220652961432
19061000000,2.82400249816,-1.68267770869,0.225955410663
19081000000,2.82957648818,-1.67907653436,0.231257995907
19101000000,2.83513089077,-1.67544552729,0.236560956746
19121000000,2.84066583481,-1.67178472081,0.241864130474
19141000000,2.84618069259,-1.66809433397,0.247167760789
19161000000,2.85167595374,-1.66437430839,0.25247152147
19181000000,2.85715055888,-1.66062498225,0.25777582053
19207000000,2.86260508404,-1.65684454227,0.263080161508
19222000000,2.86803918882,-1.65303660216,0.268384965933
19241000000,2.87345253648,-1.64919785629,0.273689971566
19261000000,2.87884561036,-1.64533170248,0.278995269948
19281000000,2.88421784018,-1.64143663085,0.28430085473
19301000000,2.8895692605,-1.63751269452,0.28960664003
19321000000,2.89489951058,-1.6335600638,0.294912710808
19341000000,2.89551617395,-1.63318645724,0.295299578018
19361000000,2.89551991057,-1.6331895838,0.295296566419
19381000000,2.89926166973,-1.62843100658,0.30561647857
19401000000,2.90298130267,-1.62330597054,0.310585797316
19421000000,2.90688741208,-1.6180720753,0.319398270061
19441000000,2.9107161698,-1.61281391557,0.328211398088
19462000000,2.91452875704,-1.6075110662,0.3370247893
19481000000,2.91829701526,-1.60217061116,0.345838725201
19501000000,2.92201459366,-1.59680019163,0.3546530352
19521000000,2.92569595988,-1.59139213576,0.363468071902
19541000000,2.92931730779,-1.58595576494,0.372283278809
19561000000,2.93289489556,-1.58048518036,0.381099491668
19581000000,2.93642056222,-1.57498392473,0.389916239264
19601000000,2.93989542733,-1.56945193026,0.398732780166
19621000000,2.94332133593,-1.56388616496,0.407550698705
19641000000,2.94669621734,-1.55829042769,0.416368112825
19661000000,2.95002400098,-1.55266590237,0.425188802362
19681000000,2.95330089186,-1.54701199137,0.434011039707
19701000000,2.95652611914,-1.54132940314,0.442829742226
19721000000,2.95970138627,-1.53561766489,0.451653873816
19741000000,2.96282388916,-1.52987581215,0.460473414803
19761000000,2.96589666522,-1.52410798752,0.469299710841
19781000000,2.96921766876,-1.51773376379,0.479002286548
19801000000,2.97218219598,-1.51190948301,0.487830747598
19821000000,2.97509415942,-1.5060583528,0.496651978058
19841000000,2.97795410542,-1.50018110941,0.505482032297
19865000000,2.98076034313,-1.49427629874,0.514308775223
19881000000,2.98351498509,-1.48834853719,0.523131204807
19901000000,2.9862167872,-1.48239613437,0.531959199231
19921000000,2.98886543548,-1.47641961455,0.540782406299
19941000000,2.99146084864,-1.47041936823,0.54961691127
19961000000,2.99400264545,-1.46439597257,0.558440884189
19981000000,2.99649075166,-1.4583498211,0.567277296161
20001000000,2.99892491312,-1.45228142302,0.576115174394
20021000000,3.00130490339,-1.44619127632,0.584940268885
20041000000,3.00363058961,-1.4400798217,0.593779917652
20061000000,3.00590173907,-1.43394757058,0.602605741255
20081000000,3.00811819735,-1.42779498619,0.611439387889
20101000000,3.01027977017,-1.42162256365,0.620265925445
20121000000,3.01238629672,-1.4154307791,0.629108447563
20141000000,3.01443759875,-1.40922012576,0.637952211906
20161000000,3.01643350251,-1.40299109866,0.646779791477
20181000000,3.01837386,-1.3967441782,0.655625076145
20202000000,3.02025849907,-1.39047986784,0.664453330887
20221000000,3.02208727243,-1.38419865699,0.673299929145
20241000000,3.02386003286,-1.37790103961,0.682128843044
20261000000,3.0255766395,-1.37158750936,0.690976041812
20281000000,3.02723694356,-1.36525857132,0.699805598787
20301000000,3.0288408608,-1.35891468061,0.708653850462
20321000000,3.03038818866,-1.3525563981,0.717493455397
20341000000,3.03187880092,-1.34618422608,0.726323946174
20361000000,3.03331265076,-1.3397985999,0.735174012026
20381000000,3.03468951634,-1.33340011722,0.744005104565
20401000000,3.03600937946,-1.32698919605,0.752856301841
20421000000,3.03727207438,-1.32056639482,0.761698075612
20441000000,3.0384775029,-1.3141322152,0.770540290944
20461000000,3.03968078362,-1.30736540182,0.779816189108
20481000000,3.04071478457,-1.3012301813,0.78821547526
20501000000,3.04174762018,-1.29476469836,0.797048344033
20522000000,3.04272301656,-1.28829011244,0.805902369963
20541000000,3.04364072802,-1.28180666176,0.814735698767
20561000000,3.04450073201,-1.27531479732,0.82358922507
20581000000,3.0453027981,-1.26881520039,0.8324420168
20601000000,3.0460451671,-1.26230669372,0.841276127335
20621000000,3.04673117028,-1.25579317722,0.850124399365
20641000000,3.04735926622,-1.24927322661,0.858958992542
20661000000,3.04792857466,-1.2427483324,0.867803246671
20681000000,3.04844042191,-1.23621739359,0.876638306347
20701000000,3.04889357499,-1.22968234122,0.885483760529
20721000000,3.04928897275,-1.22314249962,0.894324573795
20741000000,3.04962619426,-1.21659884409,0.90316574728
20761000000,3.04990516229,-1.21005194493,0.912007274717
20782000000,3.05012380657,-1.20350107517,0.920843415408
20801000000,3.05028625434,-1.19694914118,0.929691921107
20821000000,3.05039004672,-1.1903959717,0.938528484555
20841000000,3.0504356002,-1.1838415002,0.947377419305
20861000000,3.05042262618,-1.17728663214,0.956214369458
20881000000,3.05034956112,-1.17072996477,0.965064157593
20901000000,3.05021979796,-1.16417547246,0.973901484105
20921000000,3.05003174828,-1.15762180636,0.982745708358
20941000000,3.04978523771,-1.15106975567,0.991583379434
20961000000,3.04947842334,-1.14451833121,1.00043447715
20981000000,3.04911521392,-1.13797079872,1.00927248683
21001000000,3.04869376119,-1.13142619739,1.0181314319
21020000000,3.04821396663,-1.12488524492,1.02696974811
21041000000,3.0476759885,-1.11834825226,1.03582227698
21061000000,3.04707973833,-1.11181594895,1.04466088682
21081000000,3.04642536297,-1.10528867465,1.05350676041
21101000000,3.04571283053,-1.09876708449,1.06234564491
21121000000,3.04494023129,-1.09225033467,1.0711990417
21141000000,3.04411161496,-1.08574151799,1.08003819942
21161000000,3.04322510239,-1.07923978318,1.08889734513
21181000000,3.04228067222,-1.07274579509,1.09773672169
21201000000,3.04127839413,-1.06626007209,1.10659081046
21221000000,3.04021629778,-1.05978188891,1.11543039773
21241000000,3.03909870215,-1.053313928,1.12428472025
21261000000,3.0379235122,-1.046855746,1.13312451037
21281000000,3.03669087083,-1.04040773472,1.14197921611
21301000000,3.03540081904,-1.03397051704,1.15081918256
21321000000,3.03405350149,-1.02754449836,1.15967387521
21341000000,3.0326489994,-1.02113023368,1.16852860806
21361000000,3.03118740297,-1.01472827131,1.17736880339
21381000000,3.02966885601,-1.00833904081,1.18622360071
21401000000,3.02809344921,-1.00196310976,1.19506392397
21421000000,3.02646132761,-0.995600920956,1.20391872917
21441000000,3.02477259454,-0.989253033645,1.21275916059
21461000000,3.02302739586,-0.982919907255,1.22160679859
21481000000,3.02122585667,-0.976602066923,1.23044731832
21501000000,3.0193681258,-0.970299983165,1.23930206726
21521000000,3.01745209161,-0.9640133922,1.24814264626
21541000000,3.0154823936,-0.957744344107,1.25699728457
21561000000,3.01345687451,-0.951492787717,1.26585188136
21581000000,3.01126974763,-0.94494829033,1.27513655392
21601000000,3.00913080705,-0.93873343744,1.28398393591
21621000000,3.00693628659,-0.932537343302,1.2928246061
21641000000,3.00468470791,-0.926358659504,1.30167881226
21661000000,3.00238016687,-0.920201538657,1.31051948679
21681000000,3.00002074771,-0.914065186494,1.31937340547
21701000000,2.99760680926,-0.907949406675,1.32822721659
21721000000,2.99513856858,-0.901854394712,1.33706784345
21741000000,2.99262594367,-0.895782224126,1.34591541017
21761000000,2.99009019024,-0.889733368597,1.35473602651
21781000000,2.9875330426,-0.883708031317,1.36353907836
21801000000,2.98495450567,-0.877706883497,1.37232613074
21821000000,2.98233226106,-0.871730373201,1.38110947789
21841000000,2.9796577106,-0.86577644824,1.38989219462
21861000000,2.97693021369,-0.859847285571,1.39867575687
21881000000,2.97415019086,-0.853942233524,1.40745966132
21901000000,2.97131547457,-0.848061547285,1.4162440397
21921000000,2.96843324695,-0.842207236538,1.42502907059
21941000000,2.96549674698,-0.836378336579,1.43381456199
21961000000,2.96250852144,-0.830575806648,1.44260065054
21981000000,2.95946879588,-0.82480014775,1.45138725342
22001000000,2.95637777489,-0.819052099956,1.46017453563
22021000000,2.95323340686,-0.81333123716,1.46896223568
22041000000,2.9500405916,-0.807639170656,1.47775058853
22061000000,2.94679727367,-0.801975435412,1.48653939934
22081000000,2.94350130391,-0.796340636305,1.49532880443
22101000000,2.94015767823,-0.79073555372,1.5041187116
22121000000,2.93676425384,-0.785160969406,1.51290926045
22141000000,2.93332135657,-0.779616308271,1.52170026182
22161000000,2.92982918902,-0.774103329725,1.5304919564
22180000000,2.92628809152,-0.768620842536,1.53928404766
22200000000,2.92269591578,-0.763170475117,1.54807677634
22221000000,2.91905533946,-0.757751835387,1.5568699507
22241000000,2.91536663676,-0.752365867327,1.56566371023
22261000000,2.91163245,-0.747012907271,1.57445798337
22281000000,2.90785070614,-0.74169312727,1.58326643447
22301000000,2.9040217009,-0.736407483163,1.59206176769
22321000000,2.90014574224,-0.731156510258,1.60085774749
22341000000,2.89622311014,-0.72593985512,1.60965414999
22361000000,2.89225413789,-0.720758707122,1.61845120005
22381000000,2.88823675091,-0.715613104853,1.62725037421
22401000000,2.88417597005,-0.710503024411,1.63604838908
22421000000,2.88006977893,-0.705429380501,1.64486156412
22441000000,2.87591847896,-0.700392381866,1.65366061525
22461000000,2.87172241955,-0.695392738649,1.66246031609
22481000000,2.86748188918,-0.690430418954,1.67126041438
22501000000,2.86319725704,-0.685506215734,1.68006116272
22521000000,2.85886645387,-0.680620407857,1.68886229161
22541000000,2.85449456435,-0.675773052569,1.69766408713
22561000000,2.85007956337,-0.670964793152,1.70646626103
22581000000,2.8456217697,-0.666195827782,1.71526901488
22601000000,2.84112158373,-0.661466903961,1.72407221267
22621000000,2.83657700091,-0.656778696201,1.73287604759
22641000000,2.8319930375,-0.65213060676,1.74168027081
22661000000,2.82736771948,-0.647523496902,1.75048513442
22681000000,2.82269903655,-0.642957986308,1.75929049362
22701000000,2.81799209613,-0.638433920305,1.76809622798
22721000000,2.81324484191,-0.633951672344,1.77690260315
22741000000,2.81283015834,-0.633425926854,1.77752945769
22761000000,2.81282778578,-0.633401819678,1.77790534208
