%time,field.x,field.y,field.theta
5081000000,-4.98871518112,-0.164550013298,-1.62634197305
5101000000,-4.98768626581,-0.194594210901,-1.6202854114
5121000000,-4.98648420565,-0.224631359589,-1.61421877745
5141000000,-4.98510002505,-0.254660957329,-1.60815236131
5161000000,-4.98353376914,-0.284681945748,-1.60209604784
5181000000,-4.98178549337,-0.314693169172,-1.59603982778
5201000000,-4.9798552293,-0.344693540342,-1.58997443155
5221000000,-4.97783309211,-0.374681868357,-1.58395840144
5241000000,-4.97564070778,-0.404657245759,-1.577938818
5261000000,-4.97327671426,-0.434618597542,-1.57192728112
5281000000,-4.97073221948,-0.464564801884,-1.5659152543
5301000000,-4.96800730894,-0.49449502773,-1.55990299126
5321000000,-4.9651020725,-0.524408067464,-1.55389025309
5341000000,-4.96201660667,-0.554302811548,-1.54787725719
5361000000,-4.95875101454,-0.584178164532,-1.54186378461
5381000000,-4.95530540404,-0.614033084392,-1.53585005786
5401000000,-4.95167989238,-0.643866441474,-1.5298358534
5421000000,-4.94768320172,-0.675166525758,-1.52351911941
5441000000,-4.94388175505,-0.703463958242,-1.51780674024
5460000000,-4.94388175505,-0.703463958242,-1.51780674024
5481000000,-4.93537231886,-0.762962400797,-1.50577562475
5501000000,-4.93084025111,-0.792671281696,-1.49975973438
5521000000,-4.92613812629,-0.822352682936,-1.49374346182
5541000000,-4.92125709636,-0.852004906274,-1.48772665585
5561000000,-4.91619731928,-0.88162701552,-1.48170967436
5582000000,-4.91095896783,-0.911217942613,-1.47569221176
5604000000,-4.90554223595,-0.940776473458,-1.46967438989
5621000000,-4.89994731022,-0.970301552182,-1.463656338
5641000000,-4.89417438265,-0.999792128886,-1.45763786683
5661000000,-4.88822365231,-1.02924714539,-1.45161910511
5681000000,-4.88209532604,-1.05866553195,-1.44559986016
5701000000,-4.87578962026,-1.08804619633,-1.43958039205
5721000000,-4.86930675403,-1.11738807885,-1.43356057205
5741000000,-4.86264695159,-1.1466901284,-1.42754020233
5761000000,-4.85581045137,-1.17595124173,-1.42151968128
5781000000,-4.84879748466,-1.20517040848,-1.41549860688
5801000000,-4.841599378,-1.2343451339,-1.40947733319
5821000000,-4.83423424473,-1.26347708971,-1.40345575691
5841000000,-4.82669341384,-1.29256383945,-1.39743377297
5861000000,-4.81897713922,-1.32160439328,-1.39141151505
5881000000,-4.81108567175,-1.35059780239,-1.38538877188
5901000000,-4.80301934607,-1.37954270831,-1.37936582681
5921000000,-4.794778408,-1.40843826372,-1.37334239568
5941000000,-4.78636316624,-1.4372833261,-1.36731862079
5961000000,-4.777773919,-1.46607684385,-1.36129465184
5981000000,-4.76900211662,-1.4948159567,-1.35527020968
6001000000,-4.76006576925,-1.52350328087,-1.3492455523
6021000000,-4.75095634926,-1.55213591177,-1.34322049149
6041000000,-4.74167416429,-1.58071287315,-1.33719517145
6061000000,-4.73221951766,-1.60923322683,-1.33116936502
6081000000,-4.72259281613,-1.63769564044,-1.32514337687
6101000000,-4.71278558004,-1.6660970981,-1.31911691633
6121000000,-4.70281573605,-1.69444079347,-1.31309025271
6141000000,-4.6926748536,-1.72272356372,-1.3070631111
6161000000,-4.68236328248,-1.75094441845,-1.30103579857
6181000000,-4.67188136488,-1.77910241462,-1.29500799927
6201000000,-4.66122952743,-1.80719633473,-1.28897987083
6221000000,-4.65040814325,-1.83522518074,-1.28295157834
6241000000,-4.63941758328,-1.86318798212,-1.27692279747
6261000000,-4.62825824746,-1.89108369277,-1.2708938573
6281000000,-4.62825824433,-1.89108370282,-1.2708937744
6301000000,-4.60543483769,-1.94666980675,-1.25883492932
6321000000,-4.59377158402,-1.97435816592,-1.25280502692
6341000000,-4.58194117907,-2.00197539596,-1.2467745541
6361000000,-4.56994405332,-2.02952046611,-1.2407438455
6381000000,-4.55778064232,-2.05699235284,-1.23471299228
6401000000,-4.54545137409,-2.08439007452,-1.22868173821
6421000000,-4.5329481666,-2.11170960464,-1.22265027342
6441000000,-4.52028852347,-2.13895596851,-1.21661829441
6461000000,-4.50746437477,-2.16612515178,-1.21058618909
6481000000,-4.49447617075,-2.1932161854,-1.20455360047
6501000000,-4.48132437836,-2.2202280751,-1.19852070174
6521000000,-4.4680094931,-2.24715977352,-1.19248767618
6541000000,-4.4545235605,-2.27400701993,-1.18645427147
6561000000,-4.4545235605,-2.27400701993,-1.18645427147
6581000000,-4.42708261168,-2.32746073362,-1.17438650406
6602000000,-4.41312014814,-2.35406197541,-1.16835226683
6621000000,-4.39899700851,-2.38057821319,-1.16231745232
6641000000,-4.3847137503,-2.40700836198,-1.15628261867
6661000000,-4.37026257422,-2.43334788218,-1.15024731677
6681000000,-4.35566058506,-2.45960304775,-1.14421187898
6701000000,-4.34090002726,-2.48576926176,-1.13817606343
6721000000,-4.32598140956,-2.51184561333,-1.13214005273
6741000000,-4.31090526451,-2.53783115613,-1.12610355998
6761000000,-4.29567217545,-2.56372485451,-1.12006697059
6783000000,-4.28027451019,-2.58952189,-1.11402991631
6801000000,-4.26472915471,-2.61522912039,-1.10799274043
6821000000,-4.24902852178,-2.64084167652,-1.10195509482
6841000000,-4.23317314295,-2.66635868614,-1.09591736457
6861000000,-4.21716359137,-2.69177921032,-1.08987915449
6881000000,-4.20100048591,-2.71710223904,-1.08384086404
6901000000,-4.18467637805,-2.74232266958,-1.0778021114
6921000000,-4.16820788961,-2.7674479834,-1.07176325292
6941000000,-4.15157964707,-2.79246873904,-1.06572394481
6961000000,-4.13480815913,-2.81739265611,-1.05968453757
6981000000,-4.11788607489,-2.84221451399,-1.05364466494
7001000000,-4.10081401545,-2.86693338239,-1.04760472979
7021000000,-4.08359258206,-2.8915483819,-1.04156431851
7041000000,-4.06622242992,-2.91605855467,-1.03552384902
7061000000,-4.04870416884,-2.94046303412,-1.02948290389
7081000000,-4.03103844489,-2.96476090531,-1.02344190612
7101000000,-4.01322589946,-2.98895127458,-1.01740043395
7121000000,-3.99526716867,-3.0130332692,-1.01135891461
7141000000,-3.97716290931,-3.03700599552,-1.00531692182
7161000000,-3.95891378026,-3.06086856947,-0.999274887731
7181000000,-3.94051280983,-3.08461524079,-0.993232399487
7201000000,-3.92197593757,-3.10825486895,-0.987189843359
7221000000,-3.90328863766,-3.13177674553,-0.981146846437
7241000000,-3.88445916993,-3.1551849474,-0.975103806776
7260000000,-3.88445916927,-3.15518494837,-0.975103585971
7281000000,-3.84639149166,-3.2016670422,-0.963016514255
7299000000,-3.84639149166,-3.2016670422,-0.963016514255
7321000000,-3.80775678328,-3.24767980244,-0.950928872761
7341000000,-3.78823334875,-3.27051131157,-0.944884330633
7361000000,-3.76857294286,-3.29322463931,-0.938839601926
7381000000,-3.74877517449,-3.31581848561,-0.93279486192
7401000000,-3.72884084197,-3.33829191469,-0.926749656976
7421000000,-3.70877067283,-3.36064409662,-0.920704448436
7441000000,-3.68856539758,-3.3828742087,-0.914658776494
7461000000,-3.66822575176,-3.40498143263,-0.90861287266
7481000000,-3.64775247812,-3.42696495181,-0.902566975087
7501000000,-3.62714632226,-3.44882395689,-0.896520733705
7521000000,-3.60640803546,-3.47055764211,-0.890474386108
7541000000,-3.58553837399,-3.49216520626,-0.884427579097
7561000000,-3.56453809902,-3.51364585272,-0.878380789023
7581000000,-3.54340098272,-3.53499302719,-0.872333559664
7601000000,-3.52214178712,-3.55621745364,-0.866286319942
7621000000,-3.5007543058,-3.57731259033,-0.860238637006
7641000000,-3.47923928644,-3.59827769193,-0.85419098424
7661000000,-3.45759751453,-3.61911198303,-0.848142877425
7681000000,-3.43582981567,-3.63981465454,-0.842094805836
7701000000,-3.41393696714,-3.66038496282,-0.836046281626
7721000000,-3.3919197685,-3.68082214899,-0.82999779843
7741000000,-3.36977231569,-3.70111936399,-0.823948883281
7761000000,-3.34750883766,-3.72128803528,-0.81789998137
7781000000,-3.32512345194,-3.74132132814,-0.811850643538
7801000000,-3.30261034476,-3.76121231785,-0.805801379018
7821000000,-3.27998353572,-3.78097268761,-0.799751634034
7841000000,-3.25723728773,-3.80059547554,-0.793701960487
7861000000,-3.23437232345,-3.82008006144,-0.787651841804
7880000000,-3.23437232345,-3.82008006144,-0.787651841804
7901000000,-3.18829014719,-3.85863119668,-0.775551191547
7921000000,-3.16507443688,-3.87769650635,-0.769500771149
7941000000,-3.14174347407,-3.89662067221,-0.76344956734
7961000000,-3.11829811065,-3.91540299713,-0.757398783277
7981000000,-3.09473920535,-3.93404278678,-0.751346906636
8001000000,-3.07106762033,-3.95253935288,-0.745295767205
8021000000,-3.04728422198,-3.97089201236,-0.739243208356
8041000000,-3.02338988089,-3.98910008744,-0.733191721842
8061000000,-2.9993854718,-4.00716290566,-0.727138503764
8081000000,-2.97527187365,-4.02507979989,-0.721086678568
8101000000,-2.95104396054,-4.04284331679,-0.715032836138
8121000000,-2.92671464158,-4.06046636964,-0.708980667163
8141000000,-2.90227881176,-4.0779415224,-0.702926028628
8161000000,-2.90227881176,-4.0779415224,-0.702926028628
8181000000,-2.85309108092,-4.11244563549,-0.690818352479
8201000000,-2.82834103229,-4.12947327711,-0.684765561376
8221000000,-2.80348806076,-4.14635047539,-0.678709739886
8241000000,-2.77853307527,-4.16307660816,-0.672656643862
8261000000,-2.75347699136,-4.17965105665,-0.666600195577
8282000000,-2.75347699136,-4.17965105665,-0.666600195577
8301000000,-2.70306520569,-4.21234245663,-0.654489719008
8321000000,-2.67770580754,-4.22845102239,-0.64843605557
8341000000,-2.65224906222,-4.2444054354,-0.642378355588
8361000000,-2.65224906222,-4.2444054354,-0.642378355588
8381000000,-2.60105810179,-4.27586403658,-0.630265869811
8401000000,-2.57532025337,-4.29135986164,-0.624211639457
8421000000,-2.5494887353,-4.30669927718,-0.618152839552
8441000000,-2.52356453887,-4.32188168471,-0.612098348188
8461000000,-2.49754859341,-4.33690653859,-0.606039002676
8481000000,-2.47144185343,-4.35177328346,-0.599981798488
8501000000,-2.44524527681,-4.36648136979,-0.593924409682
8521000000,-2.41895472436,-4.38102275278,-0.587866857135
8541000000,-2.39258136653,-4.39541188335,-0.581811736841
8561000000,-2.36612106207,-4.40964075279,-0.575756510704
8581000000,-2.33956982059,-4.42370123447,-0.569692991399
8601000000,-2.33956982158,-4.42370123384,-0.56969018297
8621000000,-2.28622327424,-4.45135288919,-0.557576192028
8641000000,-2.25942494142,-4.46493547346,-0.551520524377
8661000000,-2.23254452946,-4.47835523059,-0.545458934563
8681000000,-2.20558307317,-4.49161163506,-0.539403059041
8701000000,-2.17854153874,-4.50470421137,-0.533341075368
8721000000,-2.15142091916,-4.51763247554,-0.527278832408
8741000000,-2.12422221039,-4.53039594967,-0.521222661188
8761000000,-2.09694186874,-4.54298630918,-0.515163272946
8781000000,-2.06958998639,-4.55541878024,-0.509106902629
8801000000,-2.04216304055,-4.56768506161,-0.503043939779
8821000000,-2.01466199289,-4.57978471835,-0.496987405371
8841000000,-1.98708785413,-4.59171730098,-0.490924299141
8861000000,-1.9594416866,-4.60348234164,-0.484867597567
8881000000,-1.93172448246,-4.61507941814,-0.478804204165
8902000000,-1.90393725898,-4.62650810241,-0.472740636196
8921000000,-1.87608103605,-4.63776797255,-0.466683700224
8941000000,-1.84815683928,-4.64885861138,-0.460623304965
8961000000,-1.82016569262,-4.65977961005,-0.454566224153
8982000000,-1.79210862569,-4.67053056445,-0.448509074361
9001000000,-1.76398667161,-4.68111107629,-0.442441594635
9020000000,-1.76398667267,-4.68111107579,-0.442438143465
9041000000,-1.73580086174,-4.69152075562,-0.436377399327
9061000000,-1.70755223191,-4.7017592178,-0.430316582277
9081000000,-1.65087066314,-4.72172098573,-0.41820171939
9101000000,-1.6224398117,-4.73144355207,-0.412137230441
9121000000,-1.59395030456,-4.74099342718,-0.406079662258
9141000000,-1.56540319318,-4.75037025645,-0.400015046171
9161000000,-1.53679952581,-4.75957369399,-0.393950370567
9181000000,-1.50813684045,-4.768595035,-0.387892673933
9201000000,-1.47942321903,-4.77745066377,-0.381831382491
9221000000,-1.45065619518,-4.78613191216,-0.375773582199
9241000000,-1.42183683512,-4.79463844898,-0.369708601049
9261000000,-1.39296619124,-4.80296996141,-0.363650727701
9281000000,-1.36404531443,-4.81112614538,-0.357585842003
9301000000,-1.335075297,-4.8191066888,-0.351527902518
9321000000,-1.33507530139,-4.81910668719,-0.351520951727
9341000000,-1.27698891836,-4.83453117536,-0.339404989426
9361000000,-1.24787787004,-4.8419830571,-0.333339891075
9381000000,-1.21872186324,-4.84925819211,-0.327275007158
9401000000,-1.18952208083,-4.85635627226,-0.321216942675
9421000000,-1.16027956277,-4.86327704705,-0.315155457224
9441000000,-1.1309925383,-4.87001164643,-0.309097375043
9461000000,-1.10166777894,-4.87657703867,-0.303032481999
9481000000,-1.07230077889,-4.88295573843,-0.296967560552
9501000000,-1.04289807484,-4.88916479622,-0.290909416529
9521000000,-1.01345802435,-4.89519534859,-0.28484784245
9541000000,-0.983981699378,-4.9010471686,-0.278789700612
9561000000,-0.954470157586,-4.90672004626,-0.272725047035
9581000000,-0.924924564149,-4.91221374982,-0.266660603404
9601000000,-0.895345948465,-4.9175280929,-0.260602464257
9621000000,-0.865733050171,-4.92265411662,-0.254541263596
9641000000,-0.836091682736,-4.92760913865,-0.24848312519
9662000000,-0.806420616035,-4.93238422837,-0.242418701961
9681000000,-0.776720808116,-4.93697923535,-0.236354598176
9701000000,-0.74699346927,-4.94139395988,-0.230293614226
9721000000,-0.717237565779,-4.94561942044,-0.22423555771
9741000000,-0.687458444152,-4.94967308904,-0.218171549077
9761000000,-0.657654983367,-4.95354603861,-0.212113515559
9781000000,-0.627828292496,-4.95723811556,-0.206049893151
9801000000,-0.59797955615,-4.96074916432,-0.199991912528
9821000000,-0.568109828517,-4.96407906509,-0.193931267432
9841000000,-0.538220206764,-4.96722769598,-0.18787334664
9861000000,-0.50831181184,-4.97019493762,-0.181810202048
9881000000,-0.478384062245,-4.97297176758,-0.175747256421
9901000000,-0.448439746981,-4.97556698439,-0.169689445521
9921000000,-0.418481610874,-4.97798942446,-0.163628912284
9941000000,-0.388509015429,-4.98023010845,-0.157571178322
9961000000,-0.358523108384,-4.98228893712,-0.151508344688
9981000000,-0.328523615315,-4.98415686814,-0.145446085311
10001000000,-0.328523615315,-4.98415686814,-0.145446085311
10021000000,-0.268495361177,-4.98736455453,-0.133328463263
10041000000,-0.238467298362,-4.98869526118,-0.127268740859
10061000000,-0.208431483034,-4.98984379755,-0.121211314378
10081000000,-0.178388978369,-4.99081012734,-0.115149751213
10102000000,-0.148340916427,-4.99159421284,-0.109092444845
10121000000,-0.118288441349,-4.99219602261,-0.103031224522
10141000000,-0.0882326053643,-4.99261554183,-0.0969702873731
10161000000,-0.0581744536539,-4.99285276179,-0.0909131782514
10181000000,-0.0281143197195,-4.99289863871,-0.0848543579971
10201000000,0.00194579407756,-4.99276218388,-0.0787956279377
10221000000,0.0320040895392,-4.99245245562,-0.0727387225715
10241000000,0.0620601707812,-4.99196044292,-0.0666781004384
10261000000,0.0921136849211,-4.9912771174,-0.060618180869
10281000000,0.122162774192,-4.9904115278,-0.054561530826
10301000000,0.152205776559,-4.98937276851,-0.0485032549996
10321000000,0.182242256109,-4.98815185061,-0.0424451636744
10341000000,0.21227106094,-4.98674880768,-0.0363887692085
10362000000,0.242291088872,-4.98516369125,-0.0303324661678
10381000000,0.272301218578,-4.98339656063,-0.024272203868
10401000000,0.302300384642,-4.98144739317,-0.0182160937595
10421000000,0.332287310741,-4.97940887558,-0.0121976671117
10441000000,0.362261250932,-4.97719766474,-0.00618640541158
10461000000,0.392221171934,-4.97480583725,-0.000174841286586
10481000000,0.42216582274,-4.97224254068,0.00583715685309
10501000000,0.452094304539,-4.96949883507,0.0118494601624
10521000000,0.48200538319,-4.96656579096,0.0178622285677
10543000000,0.511898123524,-4.96346155348,0.0238753841451
10561000000,0.511898123524,-4.96346155348,0.0238753841451
10581000000,0.571624167397,-4.9567038129,0.0359025974197
10601000000,0.601454936382,-4.95305054407,0.0419167242058
10623000000,0.631263235646,-4.94922652914,0.04793134417
10641000000,0.661047751856,-4.94522287312,0.0539462025413
10661000000,0.690807359801,-4.94103971556,0.0599615401839
10681000000,0.720540994598,-4.93667719856,0.0659771199933
10703000000,0.750247598309,-4.93213546958,0.0719931819838
10721000000,0.779925368231,-4.92740568626,0.0780095944939
10741000000,0.809574563204,-4.92250601731,0.0840262632363
10762000000,0.809574510291,-4.92250602183,0.0840263258762
10781000000,0.868780969422,-4.91217068338,0.0960607861046
10801000000,0.898335197185,-4.90672638637,0.102078507084
10821000000,0.927855887815,-4.90110391438,0.108096721788
10841000000,0.957342798511,-4.89531245145,0.114115307723
10861000000,0.986794043416,-4.88934320519,0.120134109003
10882000000,1.01620750147,-4.88318741468,0.126153315727
10901000000,1.04558416544,-4.87686323918,0.132172830131
10921000000,1.07492197297,-4.87036192048,0.138192823102
10941000000,1.10421867444,-4.86367473145,0.144213155317
10961000000,1.10421867444,-4.86367473145,0.144213155317
10981000000,1.16269017698,-4.8497884918,0.156254770046
11001000000,1.19186170782,-4.84258096721,0.162276025263
11021000000,1.22098906511,-4.8351974992,0.16829769767
11041000000,1.25007108619,-4.82763836468,0.17431964575
11061000000,1.27910678446,-4.81990381743,0.180342081676
11081000000,1.30809505344,-4.81199413886,0.186364719201
11101000000,1.30809505847,-4.8119941379,0.18636486417
11123000000,1.3384803774,-4.80350428167,0.192690720139
11141000000,1.39476429381,-4.78720795853,0.204434989725
11161000000,1.4235523811,-4.77860058977,0.210458993962
11181000000,1.45228664298,-4.76981979827,0.216483477077
11200000000,1.45228665783,-4.76981979499,0.216483552751
11221000000,1.50959527234,-4.75173794149,0.228533329175
11241000000,1.53816638305,-4.74243776821,0.234558760523
11261000000,1.56668061726,-4.73296520729,0.240584449701
11281000000,1.59513697876,-4.72332058437,0.24661062809
11301000000,1.62353436656,-4.713504258,0.252636983488
11321000000,1.65187180411,-4.70351656207,0.258663828283
11341000000,1.6801482349,-4.69335785755,0.264691005666
11361000000,1.70836257541,-4.68302852037,0.270718351836
11381000000,1.73651384791,-4.67252890448,0.276746107084
11401000000,1.76459855396,-4.66185068773,0.282774094098
11421000000,1.79262058247,-4.65101165062,0.288802595007
11441000000,1.82057642769,-4.64000348828,0.294831248082
11461000000,1.82057646056,-4.64000347826,0.29483141385
11481000000,1.87628441576,-4.61747338358,0.306889586494
11501000000,1.90403529983,-4.60595909764,0.312919480106
11521000000,1.93171515887,-4.59427877625,0.318949489459
11541000000,1.95932489817,-4.58243098354,0.324979743232
11561000000,1.98686237884,-4.57041651258,0.331010486108
11581000000,2.01432658294,-4.55823579757,0.337041372147
11601000000,2.01432659397,-4.55823579369,0.337041546701
11621000000,2.06902962957,-4.5333694931,0.349104170978
11641000000,2.09626760004,-4.52069158854,0.355136273081
11661000000,2.12342868392,-4.50785031749,0.361168407878
11681000000,2.15051037515,-4.49484547693,0.36720101948
11701000000,2.17751392688,-4.48167667746,0.373233952297
11722000000,2.17751392688,-4.48167667746,0.373233952297
11741000000,2.20981515069,-4.46566637295,0.380474749224
11761000000,2.23529698434,-4.45281094438,0.386206852687
11779000000,2.27006393621,-4.43501894081,0.394052896683
11801000000,2.29670539143,-4.42113462379,0.400085332459
11821000000,2.32325956067,-4.40708300799,0.406119953348
11841000000,2.34972815478,-4.39287102471,0.412154659397
11861000000,2.3761101746,-4.3784991852,0.418189851384
11881000000,2.40240465866,-4.36396800494,0.424225149959
11901000000,2.42860692376,-4.34926974669,0.430260935204
11921000000,2.45471967743,-4.33441323129,0.436296820445
11941000000,2.48074196486,-4.31939898632,0.442333191496
11961000000,2.50667667862,-4.3042357575,0.448369655765
11981000000,2.53251516915,-4.28890767903,0.454406607109
12001000000,2.55826427125,-4.27343168605,0.460443645991
12021000000,2.58391914885,-4.25780013961,0.466481070318
12041000000,2.60947885323,-4.2420136154,0.472518877862
12061000000,2.63494245299,-4.22607268094,0.478556768111
12081000000,2.66030900859,-4.20997791521,0.484595140109
12101000000,2.68557759226,-4.19372989862,0.490633589314
12121000000,2.71074727244,-4.17732922109,0.49667241717
12141000000,2.73581282229,-4.16076849741,0.502711420314
12161000000,2.76078192972,-4.1440642903,0.508750899778
12181000000,2.78564937348,-4.12720921154,0.514790655338
12201000000,2.81042757528,-4.1102275711,0.520830472964
12221000000,2.83508893186,-4.09307260392,0.52687077143
12241000000,2.85964590036,-4.07576862811,0.532911126598
12261000000,2.88409757473,-4.05831626331,0.538951958752
12281000000,2.90844304218,-4.04071615049,0.544992950067
12301000000,2.93268141388,-4.02296892447,0.551034204175
12321000000,2.95681179821,-4.00507522951,0.557075611781
12341000000,2.98083330739,-3.98703571535,0.563117386053
12361000000,3.00474505857,-3.96885103655,0.569159526912
12381000000,3.02854616986,-3.950521855,0.575201706204
12401000000,3.05223577475,-3.93204883052,0.581244358571
12422000000,3.07581298539,-3.91343264493,0.587287154092
12441000000,3.09927694043,-3.89467397079,0.593330200609
12461000000,3.12262172063,-3.87576595804,0.599373497506
12481000000,3.14585147915,-3.85671686277,0.605416928386
12502000000,3.16896536547,-3.83752736653,0.61146083084
12520000000,3.19196770855,-3.81820561562,0.617504748355
12541000000,3.21485252837,-3.79874482401,0.62354913629
12561000000,3.23761896816,-3.77914571804,0.629593650448
12581000000,3.26026618701,-3.75940901329,0.63563828818
12601000000,3.28279334977,-3.7395354293,0.641683392018
12621000000,3.30519964268,-3.71952567787,0.647728499872
12641000000,3.32971058394,-3.69736463887,0.654379190072
12661000000,3.34964270193,-3.67909598884,0.659819104909
12682000000,3.3716800311,-3.65868030257,0.665865574655
12701000000,3.3935890114,-3.63812610021,0.671911598375
12721000000,3.41537861272,-3.61744659097,0.677958073007
12741000000,3.43704246648,-3.5966353468,0.684004784998
12761000000,3.45857402412,-3.57568611168,0.690051481196
12784000000,3.47998394973,-3.55461373934,0.696098634812
12801000000,3.50126572489,-3.53341194065,0.702145886614
12821000000,3.52241856816,-3.51208149495,0.708193233249
12841000000,3.54344169957,-3.49062318083,0.714240914458
12861000000,3.56433434287,-3.46903778231,0.720288807755
12881000000,3.58509572834,-3.44732608668,0.726337033944
12901000000,3.605725091,-3.42548888591,0.732385222711
12921000000,3.62622166893,-3.40352697826,0.738433864145
12941000000,3.64657860726,-3.38143443928,0.744482588049
12961000000,3.6668012174,-3.35921884414,0.750531514049
12981000000,3.68689492857,-3.33688765248,0.756580638566
13001000000,3.70685285474,-3.31443498546,0.762629835708
13022000000,3.72667426494,-3.29186166768,0.76867948089
13041000000,3.74635212566,-3.26916198579,0.774729069137
13061000000,3.76589831618,-3.24634985471,0.780779101855
13081000000,3.78530580646,-3.22341955708,0.786829070014
13101000000,3.80456746528,-3.20036551147,0.792879355297
13121000000,3.82369542307,-3.17720141738,0.79892995403
13141000000,3.84267605024,-3.15391533789,0.804980480626
13161000000,3.86152165455,-3.13052082286,0.811031446656
13181000000,3.88022501982,-3.10701238594,0.817082332958
13201000000,3.89877885618,-3.0833846553,0.823133659631
13221000000,3.91719570506,-3.05965095967,0.829184897717
13241000000,3.93546826643,-3.03580592756,0.83523644268
13261000000,3.95359586962,-3.01185043718,0.84128802662
13281000000,3.97157784448,-2.98778536656,0.847340043894
13301000000,3.98941352838,-2.96361159512,0.853391964128
13321000000,4.00710225363,-2.93933001841,0.859444449165
13341000000,4.0246433831,-2.91494150694,0.865496697276
13361000000,4.04203625912,-2.89044696522,0.871549375072
13381000000,4.05928024217,-2.86584728697,0.877601942618
13401000000,4.07637469366,-2.84114337524,0.883654801911
13421000000,4.09331898202,-2.81633613523,0.889707680402
13441000000,4.11011247973,-2.79142647783,0.895760982987
13461000000,4.12675456923,-2.7664153123,0.901814163884
13481000000,4.14324463338,-2.74130355812,0.907867903874
13501000000,4.15958206429,-2.71609213395,0.913921378595
13521000000,4.17576625682,-2.69078196592,0.919975273472
13543000000,4.19179661359,-2.66537398105,0.926029172325
13561000000,4.20767254289,-2.63986911006,0.932083071589
13581000000,4.22338617067,-2.61426285777,0.938137388845
13601000000,4.23895149435,-2.58856703086,0.944191559004
13621000000,4.25436056186,-2.56277724267,0.950246144956
13641000000,4.2696129692,-2.53689422013,0.956300579802
13661000000,4.28470743303,-2.51091994423,0.962355281585
13681000000,4.29964539011,-2.48485249631,0.968410267027
13701000000,4.31442421566,-2.45869581652,0.974465080301
13723000000,4.32904407914,-2.43244983472,0.980520412658
13741000000,4.34350444283,-2.40611551018,0.986575467323
13761000000,4.35780476957,-2.37969381322,0.992631140539
13781000000,4.37193693054,-2.35318072713,0.998686428991
13801000000,4.38590798175,-2.32658225709,1.00474250903
13821000000,4.39972506257,-2.29990426809,1.01079844163
13841000000,4.41338002168,-2.27314280125,1.01685406074
13861000000,4.42686464346,-2.24629403667,1.02291080565
13881000000,4.44019387086,-2.21936857255,1.02896663398
13902000000,4.45335948219,-2.19236258443,1.03502379959
13921000000,4.46636099605,-2.16527706845,1.04107983047
13941000000,4.47919793084,-2.13811302133,1.0471366688
13961000000,4.49186981439,-2.11087143662,1.05319289195
13981000000,4.50437617427,-2.08355332191,1.0592507825
14001000000,4.5167165468,-2.05615968333,1.06530895835
14021000000,4.52888254095,-2.02868708791,1.07136545441
14041000000,4.54088959814,-2.00114539869,1.07742203351
14061000000,4.55272931712,-1.9735311993,1.08348047128
14081000000,4.56439323905,-1.94584123703,1.08953721825
14101000000,4.57589698899,-1.9180850824,1.09559614311
14121000000,4.5872321075,-1.89025946697,1.10165304433
14141000000,4.59839817969,-1.86236542039,1.10771210239
14161000000,4.60939479303,-1.83440396765,1.1137691505
14181000000,4.62022153913,-1.80637614041,1.11982869383
14201000000,4.63087802197,-1.77828296018,1.12588587951
14221000000,4.64136384224,-1.75012547095,1.13194700841
14241000000,4.65167861946,-1.72190469268,1.13800432247
14270000000,4.66182196899,-1.69362166992,1.14406169725
14281000000,4.67179350908,-1.66527745775,1.15012326014
14301000000,4.6815928849,-1.63687306779,1.15618217482
14321000000,4.69121972831,-1.60840955747,1.16223971795
14341000000,4.70067368137,-1.57988797837,1.16830022803
14361000000,4.70995439856,-1.55130937024,1.17435787184
14381000000,4.7222414745,-1.51265272198,1.18253890825
14401000000,4.73066610085,-1.48537861798,1.18829344237
14421000000,4.73937126039,-1.45661986066,1.19435391944
14441000000,4.74790323903,-1.42780804581,1.20041174764
14461000000,4.75626066517,-1.3989436634,1.20647248618
14481000000,4.76444236427,-1.37003003844,1.21253038648
14501000000,4.77244846976,-1.34106710912,1.21859145331
14521000000,4.78027869019,-1.31205592924,1.22464941576
14541000000,4.78793273219,-1.28299757746,1.23071057456
14561000000,4.79540174809,-1.25389006463,1.23677174457
14581000000,4.80270260619,-1.22474055927,1.24282978142
14601000000,4.80982645363,-1.19554708312,1.24889070079
14621000000,4.81677303467,-1.16631071067,1.25494877781
14641000000,4.82354209278,-1.13703251837,1.26101009742
14661000000,4.83013337861,-1.10771358182,1.26706820397
14681000000,4.83654664469,-1.07835499348,1.27312793126
14701000000,4.84278166334,-1.04895780455,1.27918605798
14721000000,4.8488381974,-1.01952312005,1.28524739442
14741000000,4.85471602645,-0.990052013231,1.29130871111
14759000000,4.86041493744,-0.960545555237,1.29736685059
14781000000,4.86593471563,-0.931004847777,1.30342656756
14801000000,4.87127516088,-0.901430965657,1.30948470386
14821000000,4.8764360718,-0.871825014251,1.31554596192
14841000000,4.88141726498,-0.842188057142,1.3216040857
14861000000,4.88621854779,-0.812521220929,1.32766527954
14881000000,4.89083975211,-0.782825563139,1.33372640466
14901000000,4.89528070955,-0.753102168171,1.33978449216
14921000000,4.89954125117,-0.723352152636,1.34584405044
14941000000,4.90362122413,-0.693576594266,1.35190210208
14961000000,4.90752047256,-0.663776615082,1.35796305326
14981000000,4.91123886181,-0.633953271708,1.36402105972
15001000000,4.91477624425,-0.604107714281,1.3700832695
15021000000,4.9181325043,-0.574240971166,1.37614122146
15041000000,4.92130750683,-0.544354201016,1.38220184772
15061000000,4.92430114578,-0.514448449569,1.38825973587
15081000000,4.92711330401,-0.484524856293,1.39431890359
15101000000,4.92974388374,-0.454584493426,1.40037671861
15121000000,4.93219278126,-0.424628506391,1.40643704284
15142000000,4.93445094891,-0.394656427211,1.41249477691
15161000000,4.9365362386,-0.364672437817,1.41855485263
15181000000,4.93843960177,-0.334676061541,1.42461249344
15201000000,4.94016096736,-0.304668462222,1.43067199083
15221000000,4.94170027541,-0.274650729924,1.4367317195
15241000000,4.94305747711,-0.244623916665,1.44278920555
15261000000,4.94423251829,-0.214589164025,1.44884663534
15281000000,4.94522535209,-0.184547617436,1.45490605574
15301000000,4.94604496283,-0.154501415094,1.46096524483
15321000000,4.94667330371,-0.124449466575,1.46702248065
15341000000,4.94711030644,-0.0943930566008,1.4730810575
15361000000,4.94737405771,-0.0643351662105,1.47913816976
15381000000,4.94744643937,-0.034275071645,1.48519643131
15401000000,4.94734556571,-0.00421565450507,1.49125340145
15421000000,4.94706237477,0.0258428419178,1.49731070093
15441000000,4.94659689017,0.0558993713788,1.50336752083
15461000000,4.94594005472,0.0859533881766,1.50942561019
15481000000,4.9451100456,0.116002542519,1.51548311105
15502000000,4.94409781389,0.146046458753,1.52153968642
15521000000,4.9429033996,0.176083913455,1.52759715524
15541000000,4.94151776983,0.206114316046,1.53365355775
15561000000,4.93995914695,0.236135626015,1.53971039251
15581000000,4.93821849617,0.266147280866,1.54576660989
15601000000,4.93629586118,0.296148071908,1.55182337064
15621000000,4.93428535,0.3261367317,1.55784157819
15641000000,4.93210956329,0.35611256096,1.56385295587
15661000000,4.9297531156,0.386074529212,1.56986447439
15681000000,4.92721616654,0.416021400142,1.57587649293
15701000000,4.92449879882,0.445952322401,1.58188874778
15721000000,4.92160110219,0.475866057893,1.58790147839
15741000000,4.91852317212,0.505761554585,1.59391457764
15761000000,4.91526510985,0.535637760921,1.59992793174
15781000000,4.91182702565,0.565493535366,1.60594176419
15801000000,4.9082090334,0.595327838761,1.61195584781
15821000000,4.9044112565,0.625139549428,1.61797035262
15841000000,4.90043382209,0.654927614532,1.62398516304
15861000000,4.89627686807,0.684690900575,1.63000045253
15881000000,4.89194053307,0.714428380925,1.63601610583
15901000000,4.88742496518,0.744138971414,1.64203200107
15921000000,4.8822585957,0.776788803059,1.6486505911
15941000000,4.87761516118,0.80495825969,1.65436423934
15961000000,4.87255280949,0.834579898006,1.66038156914
15981000000,4.8673040517,0.864169709266,1.66639889805
16001000000,4.86188602588,0.893726789492,1.67241678506
16021000000,4.8562896907,0.923251596708,1.67843484216
16041000000,4.85051533782,0.95274204033,1.68445338112
16061000000,4.84456319406,0.982196814632,1.69047221086
16081000000,4.8384334606,1.01161490997,1.69649139471
16101000000,4.83212634975,1.04099527115,1.70251086563
16121000000,4.82564207828,1.07033685589,1.70853075465
16141000000,4.81898087689,1.09963856748,1.71455092841
16161000000,4.81214297252,1.12889938229,1.72057158659
16181000000,4.80512861401,1.15811817382,1.72659245956
16201000000,4.79793803782,1.18729394071,1.73261381741
16221000000,4.79056258691,1.21642412744,1.73863537187
16241000000,4.78302035492,1.24551057354,1.74465743628
16261000000,4.77530269123,1.27455075448,1.75067969885
16281000000,4.76740985542,1.30354368273,1.75670244488
16301000000,4.75934212353,1.3324883107,1.76272553652
16321000000,4.75109980855,1.36138343892,1.76874889939
16341000000,4.74268319205,1.3902280684,1.77477253078
16364000000,4.73408371117,1.41901937395,1.78079648804
16381000000,4.72531938125,1.44775990808,1.78682095718
16401000000,4.71638164926,1.47644685155,1.79284575806
16421000000,4.70727084885,1.50507908459,1.79887074477
16441000000,4.69798729516,1.53365560041,1.804896067
16461000000,4.68853129427,1.56217545239,1.81092187605
16481000000,4.67890322236,1.59063743314,1.81694802131
16501000000,4.66910341337,1.61904054133,1.82297434473
16521000000,4.65913220349,1.64738378938,1.82900115649
16541000000,4.64898995887,1.67566609986,1.8350281418
16561000000,4.63867703136,1.70388647554,1.84105553572
16581000000,4.62819379304,1.73204386889,1.84708325813
16601000000,4.61754062271,1.76013723462,1.85311122754
16621000000,4.60670919778,1.78816309467,1.85913966909
16641000000,4.59570862781,1.8161228066,1.86516828528
16661000000,4.58454796013,1.84401796636,1.87119740562
16681000000,4.57321888875,1.8718451049,1.87722683941
16701000000,4.5617218684,1.89960304541,1.8832564256
16721000000,4.55005727744,1.92729087699,1.88928641477
16741000000,4.53822555518,1.95490752079,1.89531663795
16761000000,4.52622710216,1.98245203618,1.90134734792
16781000000,4.51406236987,2.00992335207,1.90737837586
16801000000,4.50173179115,2.03732047395,1.9134095459
16821000000,4.48923580404,2.06464241172,1.91944102896
16841000000,4.47657485588,2.09188816831,1.92547299825
16861000000,4.46374090959,2.11905362991,1.93150526428
16881000000,4.45075141692,2.14614401004,1.93753769079
16901000000,4.43758989757,2.17315199237,1.9435704879
16921000000,4.42426528725,2.2000797759,1.94960351298
16941000000,4.41078647867,2.22692970137,1.95563704087
16961000000,4.39714553925,2.25369747654,1.96167068053
16981000000,4.3833345534,2.28037877154,1.96770487765
17001000000,4.36937081683,2.3069793316,1.97373912958
17021000000,4.35524642467,2.33349484548,1.97977385634
17041000000,4.34096189454,2.35992431818,1.98580878692
17061000000,4.32651774548,2.38626677076,1.9918440139
17081000000,4.31190622193,2.41251757829,1.99787942441
17101000000,4.29714439822,2.43868310245,2.00391525311
17121000000,4.28222452994,2.46475873534,2.00995126831
17141000000,4.26714716236,2.49074350313,2.01598776315
17161000000,4.25191283121,2.51663646988,2.02202435494
17181000000,4.23652208276,2.54243669291,2.02806142835
17201000000,4.22097549111,2.56814318857,2.03409859319
17222000000,4.20526550263,2.59375100557,2.04013622206
17241000000,4.18940890204,2.61926724217,2.04617396732
17261000000,4.17339816693,2.6446869263,2.05221218143
17281000000,4.15723382663,2.670009216,2.05825067616
17301000000,4.14091652238,2.69523307299,2.06428924695
17321000000,4.12444682533,2.72035760787,2.07032829774
17341000000,4.10782533202,2.74538189727,2.07636741964
17361000000,4.0910526447,2.77030502141,2.08240691745
17381000000,4.07412937122,2.79512606417,2.08844658412
17401000000,4.05705612448,2.81984411406,2.09448672792
17421000000,4.03982566701,2.84445376129,2.10052691525
17442000000,4.03982566642,2.8444537623,2.10052712453
17461000000,4.00493491386,2.8933667149,2.11260834942
17481000000,3.98726802645,2.9176637323,2.11864956081
17501000000,3.96945431445,2.94185325438,2.12469082242
17521000000,3.95149442086,2.9659343968,2.13073255777
17541000000,3.93248289962,2.99110284526,2.13707870372
17561000000,3.91513195014,3.01376379477,2.1428163133
17581000000,3.8948883853,3.03988215046,2.14946389031
17601000000,3.87725804398,3.06232388898,2.15520528861
17621000000,3.85856827573,3.085844673,2.16124860709
17641000000,3.83973808655,3.10925125322,2.16729166694
17661000000,3.82076643468,3.13254327913,2.17333508579
17681000000,3.80165401068,3.15571989635,2.1793786401
17701000000,3.78240151461,3.1787802448,2.18542266085
17721000000,3.76300964239,3.20172348198,2.19146692601
17741000000,3.74347170505,3.22454350541,2.19751120866
17761000000,3.72380321323,3.24724998694,2.20355595503
17781000000,3.70399746667,3.26983683928,2.20960071169
17801000000,3.68405519331,3.29230323202,2.21564593237
17821000000,3.66397713038,3.31464832319,2.22169115745
17841000000,3.64376400477,3.33687129566,2.22773672921
17861000000,3.62340935429,3.35896580429,2.23378253237
17881000000,3.60292115733,3.38093652226,2.23982844617
17901000000,3.58230728516,3.40278825176,2.24587481849
17921000000,3.56156131263,3.42451462001,2.25192141781
17941000000,3.54067695462,3.44610910941,2.25796800456
17961000000,3.51966909635,3.4675823395,2.26401504727
17981000000,3.49853143011,3.48892780965,2.27006207082
18001000000,3.47726473233,3.51014473682,2.27610943029
18021000000,3.45586977994,3.53123233778,2.28215712529
18041000000,3.43434735232,3.55218983662,2.28820479215
18061000000,3.41269823667,3.57301645858,2.29425291224
18081000000,3.39091640432,3.59370544147,2.30030099965
18101000000,3.36901629229,3.61426801613,2.30634941324
18121000000,3.34478828046,3.63673814509,2.31300334203
18141000000,3.32373092683,3.6560032767,2.31874715287
18161000000,3.30144799823,3.67614975264,2.32479656961
18181000000,3.27904948837,3.69616840109,2.33084569175
18201000000,3.25652337509,3.716044639,2.33689510487
18221000000,3.23161859665,3.73776250643,2.34355037243
18241000000,3.20884928595,3.75735819607,2.34959954405
18261000000,3.18595982911,3.77681386064,2.35564971495
18281000000,3.16295278233,3.79613034323,2.36169980488
18301000000,3.1398289633,3.81530694825,2.36775020942
18321000000,3.11658921787,3.83434296744,2.37380066972
18341000000,3.09322807466,3.8532311998,2.37985155186
18361000000,3.0697527534,3.87197739292,2.38590237089
18381000000,3.04617037137,3.89058742332,2.39195364942
18401000000,3.02247546624,3.90905411902,2.39800483056
18421000000,2.99866890692,3.92737678835,2.40405644429
18441000000,2.99866889944,3.92737679513,2.40405670888
18461000000,2.95072441348,3.96358725177,2.41615992612
18481000000,2.92658822184,3.98147372006,2.42221192061
18501000000,2.90234991034,3.99922028559,2.4282639486
18521000000,2.90234991034,3.99922028559,2.42826421599
18541000000,2.8535352929,4.03425092344,2.44036847992
18561000000,2.82896467603,4.05153993227,2.44642153575
18581000000,2.80429776647,4.06868547085,2.45247447409
18601000000,2.77952624255,4.08568187909,2.45852730147
18621000000,2.75465196921,4.10252772799,2.46458041603
18641000000,2.7296758864,4.11922237089,2.47063354453
18661000000,2.70459888784,4.13576520802,2.47668709609
18681000000,2.67942190862,4.15215561552,2.48274079602
18701000000,2.65414586379,4.16839299397,2.4887943643
18721000000,2.62877168004,4.18447674333,2.49484821373
18741000000,2.60330028774,4.20040626922,2.50090234352
18761000000,2.57773262093,4.21618098294,2.50695633227
18782000000,2.55206961724,4.2318003015,2.51301073785
18801000000,2.52630685841,4.24725633139,2.51906497691
18821000000,2.50045601155,4.2625631201,2.52511952268
18841000000,2.47451265974,4.27771280958,2.53117404466
18861000000,2.4484777563,4.29270483181,2.53722897363
18881000000,2.42235225802,4.30753863008,2.54328402547
18901000000,2.39613712173,4.32221365704,2.54933891894
18921000000,2.36983331037,4.33672936953,2.55539402691
18941000000,2.34343674432,4.35107769348,2.56144920225
18961000000,2.31562954232,4.36597272469,2.56780949047
18981000000,2.29038513696,4.37929344377,2.57355960597
19001000000,2.26373462182,4.39316627347,2.57961564372
19021000000,2.23700303223,4.40687682376,2.58567129415
19041000000,2.23700303223,4.40687682376,2.58567129415
19061000000,2.18194086323,4.43447094884,2.59808747404
19081000000,2.15630303081,4.4470192279,2.60383839778
19101000000,2.12923898896,4.46006984942,2.60989448116
19121000000,2.10210314226,4.47296323696,2.61595068997
19141000000,2.0748883224,4.48569238298,2.62200688438
19161000000,2.04759659511,4.49825618582,2.62806316579
19181000000,2.02022901207,4.51065415174,2.63411948927
19202000000,1.99278655437,4.52288583594,2.64017595443
19223000000,1.99278655437,4.52288583594,2.64017581374
19241000000,1.96389453277,4.53555138093,2.64653737115
19261000000,1.93630106484,4.54744240096,2.65259367875
19281000000,1.9086364502,4.55916409832,2.6586504008
19301000000,1.88090108113,4.57071771262,2.66470766522
19321000000,1.85309594108,4.58210283302,2.67076480279
19341000000,1.82522206261,4.59331903289,2.67682175677
19364000000,1.79728049152,4.60436588704,2.68287939222
19381000000,1.76927221961,4.61524300436,2.68893648972
19405000000,1.76598991788,4.61659852651,2.68963001548
19421000000,1.74015924293,4.62641899852,2.69722187917
19441000000,1.71294793743,4.63650124051,2.70097150975
19461000000,1.68474608862,4.64686524768,2.70702836032
19481000000,1.65670737378,4.65695489041,2.71308749825
19501000000,1.62838124606,4.66697732508,2.71914489928
19522000000,1.59996755196,4.67683962893,2.72520462709
19541000000,1.57150479116,4.68652461921,2.73126333578
19561000000,1.568285402,4.68768633675,2.73171280539
19581000000,1.54191605419,4.6964628078,2.7395954923
19601000000,1.51334758147,4.70577924944,2.74565166583
19621000000,1.48586350772,4.71445189494,2.74940804205
19641000000,1.45721930718,4.72342399541,2.75546764671
19661000000,1.42847796361,4.73223940708,2.7615272972
19681000000,1.3996750956,4.74088342335,2.76758700469
19702000000,1.37081819828,4.74934337068,2.77364677843
19721000000,1.34193091345,4.75762013687,2.77970466574
19741000000,1.33850677501,4.75868060296,2.78040905453
19761000000,1.30898331764,4.76692269534,2.78864966025
19781000000,1.2824325904,4.77407804052,2.79210746468
19801000000,1.25355952689,4.78176764391,2.79816711266
19821000000,1.22450674162,4.78933059871,2.80422752223
19841000000,1.19536545604,4.79672235183,2.81028815158
19861000000,1.16619550087,4.80394132397,2.81634620223
19881000000,1.13694245951,4.81099619852,2.8224094067
19901000000,1.10620746543,4.81820897383,2.82877151627
19921000000,1.07835894908,4.8245483099,2.83453103548
19941000000,1.04901015248,4.83105910486,2.84059173138
19961000000,1.01963345298,4.83738942999,2.84664985677
19981000000,0.990210654157,4.84354376556,2.85271065178
20004000000,0.960747697454,4.84952032278,2.85877404
20021000000,0.931259966315,4.85531477627,2.8648321805
20041000000,0.929253813405,4.85578703425,2.86523239424
20061000000,0.902079344986,4.86093689389,2.87287294537
20081000000,0.873537847136,4.86609126222,2.87663032666
20101000000,0.844166234383,4.87129910767,2.88269043606
20122000000,0.814547544122,4.87638517689,2.88874845551
20141000000,0.784921112152,4.88128565543,2.89481157991
20161000000,0.755220845524,4.88601727,2.90087228052
20181000000,0.753184768961,4.88641850842,2.90126879642
20201000000,0.726865575886,4.89033978091,2.90690273822
20224000000,0.696085387888,4.89495522916,2.9149421107
20241000000,0.667552439284,4.89886540025,2.91870719686
20261000000,0.634789941648,4.90327759052,2.92537145982
20281000000,0.60499069611,4.90709186064,2.9314354592
20301000000,0.575130256668,4.91073085735,2.93749632166
20321000000,0.545272744768,4.91417429275,2.94355428838
20341000000,0.515372209708,4.91745008984,2.94961540766
20361000000,0.485440115422,4.92054653065,2.95567964074
20381000000,0.455525805461,4.92345456021,2.96173752294
20401000000,0.425571204888,4.92618506366,2.96780123973
20421000000,0.395613743115,4.92872220814,2.9738619002
20441000000,0.365650710093,4.93108516316,2.97991967423
20461000000,0.335662529917,4.93326805133,2.98598322708
20481000000,0.305672519181,4.93526725958,2.9920408998
20501000000,0.275663990515,4.93708546799,2.99810385881
20521000000,0.245649196074,4.93872095842,3.00416400996
20541000000,0.215625732153,4.9401650651,3.01022151641
20561000000,0.18559334447,4.94143621474,3.01628153914
20581000000,0.155553056861,4.94252522952,3.02234412219
20601000000,0.125508611413,4.9434317571,3.02840147059
20621000000,0.0954578748839,4.9441561477,3.03446342217
20641000000,0.0654041149563,4.94469813904,3.04052064389
20661000000,0.0338449272129,4.94507323576,3.04688708202
20681000000,0.00528740380207,4.94522733,3.05263902142
20701000000,-0.0247720341685,4.94522123015,3.05870032276
20721000000,-0.0548318591854,4.94502494727,3.06475935843
20741000000,-0.0863914530335,4.94463429231,3.07112107203
20761000000,-0.114946277649,4.94409566405,3.07687680601
20781000000,-0.144996515489,4.9433603165,3.08293543425
20801000000,-0.175043170991,4.94244397639,3.08899388559
20821000000,-0.205083989835,4.9413454348,3.09505216241
20841000000,-0.235118076484,4.9400647439,3.10110861588
20861000000,-0.265143698014,4.93860192801,3.10716824113
20881000000,-0.295160609016,4.93695707388,3.11322451359
20901000000,-0.325166853463,4.93513021808,3.11928369856
20921000000,-0.355162061841,4.93314915883,3.1253283388
20941000000,-0.38514434475,4.93105815765,3.13134592086
20961000000,-0.415113747336,4.9287965925,3.13735722876
20981000000,-0.445068347773,4.92635441977,-3.13981625156
21000000000,-0.475007845142,4.92373178497,-3.13380419765
21021000000,-0.504930596555,4.9209287757,-3.12779172064
21041000000,-0.534835535291,4.91794548672,-3.1217788197
21061000000,-0.5647220275,4.91478200723,-3.11576566539
21081000000,-0.594588366372,4.91143845759,-3.10975203038
21101000000,-0.624434094881,4.90791493089,-3.10373814576
21121000000,-0.654257493978,4.90421156861,-3.09772377946
21141000000,-0.684057960826,4.90032847705,-3.09170910755
21161000000,-0.713834256452,4.8962657939,-3.08569407242
21181000000,-0.743585298661,4.8920236573,-3.07967867457
21201000000,-0.773310156774,4.88760220151,-3.07366297625
21221000000,-0.803007442625,4.88300159819,-3.06764685595
21241000000,-0.832676382494,4.87822198309,-3.06163043728
21261000000,-0.86231543879,4.87326355791,-3.05561353513
21281000000,-0.891923838324,4.86812647068,-3.04959627231
21301000000,-0.92150067168,4.86281088221,-3.04357871462
21321000000,-0.951044687676,4.85731699196,-3.03756079971
21341000000,-0.980554819954,4.85164498966,-3.0315425283
21360000000,-1.01003013826,4.84579505541,-3.0255239675
21381000000,-1.03946915232,4.83976744187,-3.01950491991
21401000000,-1.06887133407,4.83356229343,-3.01348565173
21421000000,-1.09970202487,4.82685964039,-3.00716325332
21441000000,-1.12755980734,4.82061240817,-3.00144612261
21461000000,-1.1568427894,4.81387511985,-2.99542546398
21481000000,-1.18608585838,4.8069621967,-2.9894047918
21501000000,-1.21528488327,4.79986402636,-2.98338364227
21521000000,-1.24444198762,4.79259864516,-2.97736226422
21541000000,-1.27355428635,4.78515745338,-2.97134040467
21561000000,-1.30262106905,4.77754065522,-2.96531827058
21581000000,-1.33164115986,4.76974853863,-2.95929579143
21601000000,-1.36061188864,4.76177248929,-2.95327297981
21621000000,-1.38953552726,4.75363054683,-2.94724987696
21641000000,-1.41840907677,4.74531417426,-2.94122629191
21661000000,-1.44723183583,4.73682359641,-2.93520244041
21681000000,-1.47600261782,4.7281591408,-2.9291782489
21701000000,-1.50471848676,4.71931227747,-2.92315373059
21721000000,-1.53338227875,4.71030096875,-2.91712892815
21741000000,-1.56198876609,4.70110795137,-2.91110365641
21761000000,-1.59054127977,4.6917510904,-2.90507818125
21782000000,-1.61903641123,4.6822219925,-2.89905222405
21801000000,-1.6474734187,4.67252092394,-2.89302601236
21821000000,-1.67585115153,4.66264825689,-2.88699946821
21841000000,-1.70416633251,4.65259558562,-2.88097260613
21861000000,-1.73242243563,4.64238077415,-2.8749454703
21881000000,-1.76061610861,4.63199545149,-2.86891785233
21901000000,-1.78874641177,4.62143996272,-2.86289007023
21921000000,-1.81681225415,4.61071470203,-2.85686179779
21941000000,-1.84481263403,4.59982004537,-2.85083336469
21961000000,-1.87274650379,4.58875638911,-2.84480444098
21981000000,-1.90061286331,4.57752412228,-2.83877536129
22001000000,-1.92841067167,4.56612365341,-2.83274579101
22021000000,-1.95613892475,4.55455538656,-2.82671598427
22041000000,-1.98379661686,4.54281973296,-2.82068585802
22061000000,-2.01137989184,4.53090852854,-2.81465542782
22081000000,-2.03889338967,4.51883938058,-2.8086247423
22101000000,-2.0663332686,4.50660413666,-2.80259366378
22121000000,-2.09369856608,4.49420322023,-2.79656236002
22141000000,-2.12098830161,4.48163706782,-2.79053056805
22161000000,-2.14820139492,4.46890615992,-2.78449846283
22181000000,-2.17533686737,4.45601094766,-2.77846622628
22201000000,-2.20239373706,4.44295189006,-2.77243350057
22221000000,-2.22937101679,4.42972945507,-2.76640064857
22241000000,-2.25628092182,4.41637783873,-2.76036730455
22261000000,-2.28309605022,4.40283006783,-2.75433375268
22281000000,-2.3098286221,4.38912038526,-2.74829989522
22301000000,-2.33647767412,4.37524926131,-2.74226582905
22321000000,-2.36304221976,4.36121719911,-2.73623127504
22341000000,-2.38952129291,4.34702470081,-2.73019651535
22361000000,-2.41591390378,4.33267228618,-2.72416145791
22381000000,-2.44221909339,4.31816046889,-2.71812610421
22401000000,-2.46843589549,4.30348977305,-2.71209055224
22421000000,-2.49456336142,4.28866072196,-2.70605451399
22441000000,-2.52060050759,4.27367386244,-2.70001837804
22462000000,-2.54654639275,4.25852972911,-2.69398175645
22481000000,-2.5724000623,4.24322887009,-2.68794494365
22501000000,-2.5981605649,4.22777183941,-2.681907943
22521000000,-2.62382695885,4.2121591938,-2.67587045781
22541000000,-2.64939829736,4.19639149995,-2.66983288837
22561000000,-2.67614556038,4.17967227908,-2.66349094609
22584000000,-2.70024852416,4.16438613149,-2.65775697953
22601000000,-2.72552843219,4.14815576329,-2.65171808838
22621000000,-2.75071020016,4.13177363527,-2.64567940017
22641000000,-2.77579225551,4.11523936379,-2.63964022972
22661000000,-2.80202071512,4.09771842351,-2.63329701242
22681000000,-2.82564976954,4.08170979948,-2.62756165333
22701000000,-2.85042648257,4.06472177402,-2.62152138579
22721000000,-2.87510049387,4.04758499198,-2.61548133504
22741000000,-2.89967021765,4.03029911877,-2.6094408045
22761000000,-2.92413474922,4.0128647843,-2.60340022014
22781000000,-2.94848857556,3.99527482887,-2.59735917404
22801000000,-2.97274001798,3.97754547636,-2.59131804974
22821000000,-2.99688359108,3.95966957392,-2.5852764592
22841000000,-3.020918398,3.9416477731,-2.5792348273
22861000000,-3.04484355378,3.92348072823,-2.57319271967
22881000000,-3.06865332852,3.90516144987,-2.56715048185
22901000000,-3.09235651021,3.88670591947,-2.56110795997
22921000000,-3.11594746569,3.86810710931,-2.55506519492
22941000000,-3.13942525075,3.84936574221,-2.54902229283
22961000000,-3.16278902279,3.83048248465,-2.54297891811
22981000000,-3.18603284255,3.8114505228,-2.53693553784
23001000000,-3.20916597682,3.79228556862,-2.53089165626
23021000000,-3.23218258431,3.77298076623,-2.52484765323
23041000000,-3.25508174181,3.75353686765,-2.51880341027
23061000000,-3.27786262712,3.73395456496,-2.51275892732
23081000000,-3.30052440074,3.71423457119,-2.50671432158
23101000000,-3.30212624255,3.71295695882,-2.50632598546
23121000000,-3.32286178133,3.69466926503,-2.49873631255
23141000000,-3.34444192431,3.67531234506,-2.4949696473
23161000000,-3.36674598709,3.65518986751,-2.48892471036
23181000000,-3.38875240788,3.63506854717,-2.48287905573
23201000000,-3.41079497446,3.61469134255,-2.47683306477
23221000000,-3.43274176373,3.59414708807,-2.47078697938
23241000000,-3.45456823183,3.57347791382,-2.46474063551
23261000000,-3.47626645823,3.55267872691,-2.45869407699
23281000000,-3.49782537852,3.53175883151,-2.45264741722
23301000000,-3.51927541693,3.51069328563,-2.44660030126
23321000000,-3.54057900388,3.48951341186,-2.44055320625
23341000000,-3.56175931095,3.46818809858,-2.43450567152
23361000000,-3.58280832117,3.44674802106,-2.42845801336
23381000000,-3.60372308641,3.42518406263,-2.42241027568
23401000000,-3.62451208488,3.40348891088,-2.41636208422
23421000000,-3.64515959981,3.38166443858,-2.41031382479
23441000000,-3.66567395021,3.3597155381,-2.40426534633
23461000000,-3.68606059139,3.33764963323,-2.3982166433
23481000000,-3.70631204258,3.31546143438,-2.39216787588
23501000000,-3.72642991275,3.29314955575,-2.38611865866
23521000000,-3.74641117683,3.27071694707,-2.38006936926
23541000000,-3.76625592219,3.24816366277,-2.37401988328
23561000000,-3.78596327768,3.22549066731,-2.3679703308
23581000000,-3.80553294195,3.20269837666,-2.36192045817
23601000000,-3.82496398349,3.17978782818,-2.35587026588
23621000000,-3.84425561734,3.15675993003,-2.34982014312
23641000000,-3.86340717526,3.13361548352,-2.3437695745
23662000000,-3.88241802132,3.1103552639,-2.33771895097
23681000000,-3.90128752687,3.08698004504,-2.33166827615
23701000000,-3.92001472032,3.0634909722,-2.32561715852
23721000000,-3.93859931559,3.03988847549,-2.31956612572
23741000000,-3.95704017056,3.0161739088,-2.31351465278
23761000000,-3.97533045273,2.99234143569,-2.30746328937
23781000000,-3.99348227556,2.9684048055,-2.30141145573
23801000000,-4.01148885505,2.94435815454,-2.2953597295
23821000000,-4.02934913126,2.9202027979,-2.28930756959
23841000000,-4.04706269452,2.89593933374,-2.28325551325
23861000000,-4.0646287042,2.87156886391,-2.27720302333
23881000000,-4.08204663089,2.84709214143,-2.27115064256
23901000000,-4.09931575543,2.82251015148,-2.26509783048
23921000000,-4.11814511895,2.79535428582,-2.25843918479
23941000000,-4.13424585077,2.77178987265,-2.25268787776
23961000000,-4.15105719943,2.7468904757,-2.24663429887
23981000000,-4.1677172353,2.72189127244,-2.24058113621
24001000000,-4.18422533239,2.69679135056,-2.2345275475
24021000000,-4.20058086211,2.67159165672,-2.22847391988
24041000000,-4.21678322046,2.6462931146,-2.22242012163
24061000000,-4.23282459348,2.62089112677,-2.21636615086
24081000000,-4.24871882812,2.59539767409,-2.21031226977
24101000000,-4.26445812168,2.56980814261,-2.20425765077
24121000000,-4.28004187793,2.5441235018,-2.1982034956
24141000000,-4.29546954158,2.51834466566,-2.19214837193
24164000000,-4.31073313788,2.49246730896,-2.18609342885
24181000000,-4.32583947196,2.46649771244,-2.1800388808
24201000000,-4.34079543195,2.44044202835,-2.17398300543
24221000000,-4.35781040985,2.41037297887,-2.1670210586
24241000000,-4.37168786171,2.38543432575,-2.16126627715
24261000000,-4.38615080033,2.35910005293,-2.15521018325
24281000000,-4.40045345317,2.33268088548,-2.1491539762
24301000000,-4.41459616672,2.3061743586,-2.14309869115
24321000000,-4.428578481,2.27958131239,-2.1370424157
24341000000,-4.44239851326,2.25290486341,-2.13098475179
24361000000,-4.45605644355,2.22614491539,-2.12492913433
24381000000,-4.46955176083,2.19930246069,-2.11887103608
24401000000,-4.48288397115,2.17237847685,-2.11281394283
24421000000,-4.49605258104,2.14537395344,-2.10675801324
24441000000,-4.50905710131,2.11828988606,-2.10070066869
24461000000,-4.52189705362,2.09112726527,-2.09464454226
24481000000,-4.53457195984,2.06388709468,-2.08858554718
24501000000,-4.54708135439,2.03657036967,-2.08252627964
24521000000,-4.55942477541,2.00917809251,-2.07646833483
24541000000,-4.57160176494,1.98171127241,-2.07041026105
24561000000,-4.583611874,1.95417091624,-2.06435205437
24581000000,-4.59544665964,1.92655371288,-2.05829539032
24601000000,-4.60712168231,1.89886933762,-2.05223698567
24621000000,-4.61862851029,1.87111445629,-2.04618016264
24641000000,-4.62995864765,1.84328591472,-2.04011989205
24661000000,-4.64112782334,1.8153931155,-2.0340594111
24681000000,-4.65212754188,1.78743288719,-2.02800236441
24701000000,-4.66295740088,1.75940626444,-2.02194148841
24721000000,-4.67361700236,1.73131427301,-2.01588237954
24741000000,-4.68410595141,1.70315794733,-2.00982317733
24761000000,-4.69442386244,1.67493831787,-2.00376586439
24781000000,-4.70457035172,1.64665642705,-1.9977065119
24801000000,-4.71454504031,1.61831332352,-1.99164504973
24821000000,-4.72433927775,1.5899062931,-1.9855875599
24841000000,-4.73492979473,1.55859747286,-1.97891977926
24861000000,-4.74390243241,1.5314981687,-1.97316781018
24881000000,-4.7531760989,1.5029185766,-1.96710541174
24901000000,-4.76227778947,1.47428225796,-1.96104771741
24921000000,-4.77120555664,1.44559103713,-1.95498797168
24941000000,-4.77995906165,1.41684599487,-1.94893019102
24961000000,-4.78853799127,1.38804816264,-1.94286862933
24981000000,-4.79694201878,1.3591986244,-1.93681077122
25001000000,-4.80517084245,1.33029841864,-1.93074912087
25021000000,-4.81322415095,1.30134862779,-1.92468742989
25041000000,-4.82110165141,1.2723503045,-1.918629473
25061000000,-4.8288030523,1.24330451708,-1.91256772466
25081000000,-4.83632806941,1.21421233336,-1.90650783575
25101000000,-4.84367642624,1.18507481961,-1.90044980102
25121000000,-4.85084785014,1.15589305149,-1.89438800316
25141000000,-4.85783348614,1.12666518413,-1.88832994475
25161000000,-4.8646416249,1.09739530049,-1.88226774625
25181000000,-4.8712806753,1.06808721253,-1.87620962466
25201000000,-4.87774179684,1.03873913427,-1.87014746399
25221000000,-4.88401606344,1.0093495017,-1.86408935234
25241000000,-4.89012055114,0.979924799478,-1.85802719606
25261000000,-4.89604640928,0.950463361479,-1.85196905369
25281000000,-4.90179341572,0.920966255726,-1.84590730827
25301000000,-4.90736133682,0.891434638529,-1.8398491656
25321000000,-4.91274997632,0.861869564175,-1.83378753536
25341000000,-4.91795913783,0.832272112043,-1.82772939928
25361000000,-4.92298862231,0.802643398624,-1.82166785507
25381000000,-4.927829477,0.772982183425,-1.81560975114
25401000000,-4.93249906009,0.743294165355,-1.80954991153
25421000000,-4.9369884522,0.713578111479,-1.80349181366
25441000000,-4.94129747263,0.683835147133,-1.79743003927
25461000000,-4.94542597252,0.654066317577,-1.79136878311
25481000000,-4.94937378624,0.624272776986,-1.78531074312
25501000000,-4.95314076983,0.594455617887,-1.77924964338
25521000000,-4.95672679387,0.564615895158,-1.77319165187
25541000000,-4.96013171566,0.534754760285,-1.76713071622
25561000000,-4.9633554241,0.504873242975,-1.76107278249
25581000000,-4.96639778974,0.474972499733,-1.7550120283
25601000000,-4.96925870787,0.445053595157,-1.74895278191
25621000000,-4.97192914917,0.415116010253,-1.74289358146
25641000000,-4.97442684956,0.385164097166,-1.73683577836
25661000000,-4.97674280906,0.35519738319,-1.73077633392
25681000000,-4.97887696143,0.325216805509,-1.72471603721
25701000000,-4.98082919976,0.295223638884,-1.71865837878
25721000000,-4.98259945953,0.265218945789,-1.71259837138
25741000000,-4.98418767897,0.235203813289,-1.7065396633
25761000000,-4.98559380378,0.205179320864,-1.70048215786
25781000000,-4.98681777383,0.175146645618,-1.6944225094
25801000000,-4.98785955863,0.145106785174,-1.68836511742
25821000000,-4.98879363439,0.112055864574,-1.68169938762
25841000000,-4.98942181602,0.0835078525333,-1.67594406386
25861000000,-4.98990653093,0.0534528493728,-1.66988515164
25881000000,-4.99021008265,0.0233953916133,-1.66382802585
25901000000,-4.99033142161,-0.0066647974408,-1.65776917075
25921000000,-4.99027033881,-0.0367242647233,-1.65171218332
25941000000,-4.99002694626,-0.0667830775499,-1.64565288875
25961000000,-4.98960124949,-0.0968400570223,-1.63959386335
25981000000,-4.98899327691,-0.126894256796,-1.63353710517
26001000000,-4.9882030418,-0.156944406296,-1.62747843398
26021000000,-4.98723058511,-0.186989575385,-1.6214218401
26041000000,-4.98607593594,-0.217028503172,-1.61536353879
26061000000,-4.98473914515,-0.247060228361,-1.60930711831
26081000000,-4.98322025817,-0.277083511191,-1.60324920273
26101000000,-4.98151933729,-0.30709738175,-1.59719296473
26121000000,-4.979636441,-0.337100893458,-1.59113610869
26141000000,-4.97764206899,-0.367092267945,-1.58510858222
26161000000,-4.97550421453,-0.397070968039,-1.57909529198
26181000000,-4.9731871932,-0.427035967959,-1.57308343385
26201000000,-4.97068962756,-0.456986318226,-1.56707162694
26215000000,-4.968011625,-0.48692078164,-1.56105934376
26241000000,-4.96515327264,-0.516838386902,-1.55504680189
26261000000,-4.9621146656,-0.546737964153,-1.54903378278
26281000000,-4.95889590366,-0.576618480144,-1.54302050844
26301000000,-4.95549709557,-0.606478797422,-1.53700675583
26321000000,-4.95190933084,-0.63631759735,-1.53099275048
26341000000,-4.94814176319,-0.666133966161,-1.52497826695
26361000000,-4.94420353031,-0.695927286009,-1.51896353689
26381000000,-4.94008573929,-0.725696093596,-1.51294832577
26401000000,-4.93578853617,-0.75543931831,-1.50693287029
26421000000,-4.93131206939,-0.785155856293,-1.50091693388
26441000000,-4.92665649006,-0.814844659788,-1.49490075704
26462000000,-4.92182195961,-0.844504626985,-1.48888415987
26481000000,-4.91680864466,-0.874134678373,-1.48286714141
26501000000,-4.91161671648,-0.903733755008,-1.47684988832
26521000000,-4.90624635503,-0.933300773371,-1.47083215254
26541000000,-4.90069774749,-0.962834645853,-1.46481418594
26561000000,-4.89497108443,-0.992334316121,-1.45879573586
26581000000,-4.88906656779,-1.02179868471,-1.45277705906
26601000000,-4.88298439953,-1.05122670978,-1.44675796371
