%time,field.x,field.y,field.theta
2401000000,0.780197544971,-0.707250645886,-1.0995605627
2421000000,0.778776234286,-0.711851076314,-1.10727976238
2441000000,0.777318954824,-0.716440807859,-1.11499993019
2461000000,0.775825798796,-0.721019578005,-1.1227167849
2481000000,0.774296836856,-0.72558708374,-1.1304374846
2501000000,0.772732162375,-0.73014306562,-1.13815876003
2521000000,0.771131862987,-0.734687248873,-1.14588030858
2541000000,0.769496022851,-0.739219346839,-1.15360233458
2561000000,0.767824734341,-0.743739086605,-1.16132454001
2581000000,0.766118091082,-0.748246194072,-1.1690471299
2601000000,0.764374941948,-0.752740947334,-1.1767703023
2621000000,0.762597879399,-0.757221971458,-1.18449375972
2641000000,0.760785757072,-0.761689550092,-1.19221770416
2661000000,0.758937281494,-0.766143603102,-1.19994186469
2681000000,0.757054059258,-0.770583899268,-1.20766582829
2701000000,0.755137369267,-0.775009478382,-1.21538491742
2721000000,0.753186044037,-0.779420543054,-1.22311043826
2738000000,0.75318591031,-0.779420173783,-1.22311025265
2761000000,0.749179764558,-0.788197572215,-1.23856231488
2781000000,0.747123902706,-0.792563884153,-1.24628904505
2801000000,0.745035142524,-0.796914149412,-1.25401608795
2821000000,0.742912300441,-0.801248509253,-1.26174354172
2841000000,0.740754220595,-0.80556718308,-1.26947149797
2861000000,0.738563517338,-0.809868725707,-1.27719968728
2881000000,0.736339198891,-0.814153886408,-1.28492838222
2901000000,0.734081243383,-0.818421906291,-1.2926574952
2921000000,0.731789896815,-0.822672927571,-1.30038702812
2941000000,0.729465251611,-0.826906564406,-1.30811706751
2955000000,0.729465258253,-0.82690658913,-1.30811689911
2981000000,0.724716554107,-0.83532049576,-1.32357824909
3001000000,0.722292778417,-0.839500296569,-1.3313093169
3021000000,0.719836218977,-0.843661576738,-1.33904106024
3042000000,0.717345703186,-0.847804452393,-1.34677323625
3061000000,0.714822690946,-0.851928312139,-1.35450560268
3081000000,0.712267282495,-0.856032696337,-1.36223839411
3101000000,0.709681069625,-0.8601175392,-1.36997186524
3121000000,0.707062793095,-0.864182578389,-1.37770409219
3131000000,0.704412632268,-0.868227692403,-1.38543844683
3161000000,0.701730725324,-0.872252558608,-1.39317309048
3181000000,0.698881294923,-0.876455688782,-1.40129369781
3201000000,0.6962711614,-0.880240971183,-1.40864382243
3221000000,0.6935107802,-0.884203384475,-1.41637561277
3241000000,0.690752136031,-0.88814398393,-1.42409712099
3261000000,0.68799605415,-0.892062545618,-1.43180889721
3281000000,0.685229115435,-0.895958796523,-1.43950957625
3301000000,0.682295518653,-0.900025714961,-1.4475968628
3322000000,0.679608137954,-0.903686358185,-1.45491711818
3341000000,0.676753383021,-0.907518187869,-1.46262076958
3361000000,0.673868963931,-0.911326267136,-1.47032439201
3381000000,0.670954914224,-0.915110451266,-1.47802749895
3401000000,0.668011641955,-0.918872926707,-1.48573076638
3421000000,0.665039210227,-0.922612364049,-1.49343350705
3441000000,0.662037781059,-0.926328340169,-1.50113643355
3457000000,0.659006185523,-0.930020905011,-1.50883885556
3481000000,0.655947324565,-0.933689494081,-1.51654144391
3501000000,0.652860015897,-0.937334082394,-1.52424069214
3522000000,0.649744446734,-0.940954413403,-1.53194297878
3541000000,0.649744441654,-0.940954281863,-1.53194262469
3552000000,0.643427916369,-0.948121418837,-1.54734675082
3581000000,0.64022869792,-0.951667784226,-1.55504824108
3601000000,0.637001974939,-0.955189041456,-1.56274994623
3621000000,0.633747941705,-0.958684746716,-1.57045116143
3641000000,0.633498967054,-0.959080953771,-1.57127943484
3661000000,0.633494406493,-0.959082938136,-1.57128398037
3681000000,0.633490357627,-0.95920153752,-1.57402874256
3701000000,0.633486367331,-0.959203565249,-1.57403175187
3721000000,0.632511353389,-0.953631458662,-1.57641729849
3741000000,0.631461930658,-0.947572929579,-1.57803342368
3761000000,0.630427988627,-0.941299023852,-1.5806016321
3781000000,0.629410422276,-0.935017550589,-1.58316965937
3801000000,0.6284094936,-0.928710150173,-1.58573751981
3821000000,0.627424586552,-0.922427960968,-1.58830529817
3841000000,0.626456996461,-0.916088579204,-1.59087276241
3862000000,0.626456996461,-0.916088579204,-1.59087276241
3881000000,0.624571040681,-0.903457903344,-1.5960073926
3901000000,0.623653142758,-0.897114477296,-1.59857435109
3921000000,0.622750295953,-0.890819592277,-1.60114133138
3943000000,0.621864546154,-0.884498819308,-1.6037080744
3961000000,0.620995291628,-0.87817785019,-1.6062746555
3981000000,0.620136945184,-0.87187580873,-1.60884320634
4001000000,0.619282976401,-0.8655362727,-1.61141691937
4021000000,0.618430314251,-0.85922952719,-1.61399659947
4042000000,0.617581530388,-0.852896920359,-1.61658166622
4061000000,0.61673506051,-0.846570510876,-1.61917266915
4081000000,0.615890268579,-0.840256841487,-1.62177002751
4101000000,0.615048417541,-0.833935626367,-1.62437306589
4121000000,0.614209271031,-0.827613181017,-1.62698192289
4141000000,0.613377370467,-0.821292860693,-1.62959522658
4161000000,0.612562057595,-0.814964276102,-1.63219690208
4181000000,0.611763276394,-0.808635968386,-1.6347887551
4201000000,0.61098172114,-0.802309697516,-1.63740247972
4221000000,0.61021689615,-0.795980147651,-1.64000573328
4241000000,0.61021689615,-0.795980147651,-1.64000573328
4261000000,0.608736213104,-0.78331623596,-1.64521273151
4281000000,0.608020628046,-0.776981364246,-1.64780667171
4301000000,0.607321512176,-0.770645951199,-1.65042057009
4321000000,0.606639100618,-0.764308375474,-1.65302474191
4341000000,0.605973322842,-0.757969628509,-1.65563870476
4361000000,0.605324278816,-0.751628600859,-1.65823368253
4381000000,0.604691896285,-0.745286263654,-1.66082926662
4401000000,0.60407616112,-0.7389428422,-1.66344332296
4421000000,0.603477129846,-0.73259778713,-1.6660483993
4441000000,0.602894788139,-0.726251347118,-1.66865364329
4461000000,0.602329132059,-0.719903643079,-1.67126778924
4481000000,0.601780194305,-0.713554426342,-1.67386462416
4501000000,0.601248774132,-0.707204051349,-1.67646205923
4521000000,0.60073323477,-0.700852457378,-1.67907628527
4541000000,0.600234409168,-0.694499620351,-1.68168265427
4561000000,0.600234412726,-0.694499587907,-1.68167452503
4581000000,0.599286903605,-0.681790527474,-1.68690312485
4601000000,0.598838236955,-0.675434301858,-1.68950164436
4622000000,0.598406288968,-0.669077097536,-1.69211601028
4641000000,0.597991073358,-0.662718867514,-1.69471507184
4661000000,0.597592589074,-0.656359689092,-1.69731463149
4681000000,0.597210834147,-0.649999643035,-1.69992907288
4701000000,0.596845817715,-0.643638721364,-1.70252914108
4722000000,0.596497538213,-0.637276999491,-1.70514363061
4741000000,0.596166001768,-0.63091449301,-1.70775111311
4761000000,0.595851207357,-0.624551270351,-1.71036564904
4781000000,0.595851210942,-0.624551244538,-1.71035191677
4801000000,0.595272567601,-0.611822888693,-1.71558108076
4821000000,0.595008271431,-0.605456733173,-1.71818236044
4841000000,0.594760326433,-0.59909202863,-1.72078409033
4852000000,0.594529280981,-0.592725820175,-1.7233987347
4881000000,0.594314992637,-0.586359132496,-1.72600710875
4901000000,0.594117458747,-0.579992036326,-1.72862179348
4921000000,0.593936685063,-0.573624547417,-1.73122421561
4941000000,0.593772670755,-0.567256723051,-1.73382704673
4961000000,0.59362541416,-0.560888623965,-1.73644178875
4981000000,0.59349492088,-0.554520265957,-1.73905074588
5001000000,0.593381187708,-0.548151717414,-1.74166552391
5015000000,0.593284220185,-0.541782994171,-1.74426899319
5041000000,0.593204016117,-0.53541415697,-1.74687284495
5061000000,0.593141384216,-0.529045405078,-1.74948767985
5081000000,0.593094710798,-0.522676468211,-1.75209199252
5101000000,0.593065612154,-0.516307709273,-1.75470684971
5120000000,0.59306561258,-0.516307706966,-1.75470164008
5141000000,0.593056891721,-0.503570271445,-1.75993140777
5161000000,0.593077267143,-0.497201712747,-1.76253608662
5181000000,0.59311441408,-0.490833312018,-1.76515100536
5201000000,0.593114424884,-0.490833256711,-1.76514124431
5221000000,0.593239829456,-0.478097329229,-1.7703618891
5241000000,0.59332726919,-0.471729767327,-1.77297684672
5261000000,0.593431472663,-0.465362569281,-1.77558721833
5281000000,0.59355244027,-0.458995773662,-1.77819768344
5301000000,0.593690976624,-0.45262961255,-1.78081267405
5321000000,0.59384546506,-0.446263769133,-1.78341887322
5341000000,0.594027097126,-0.439579853128,-1.78616340194
5361000000,0.594206243777,-0.433533990931,-1.78864037421
5381000000,0.594411108113,-0.427169943598,-1.79125538261
5401000000,0.594632624988,-0.420806548154,-1.79387042517
5421000000,0.594870879493,-0.414443941628,-1.79647321291
5441000000,0.595125905566,-0.408082010744,-1.7990805078
5461000000,0.595397678305,-0.40172090125,-1.80169557525
5481000000,0.5956862022,-0.395360629307,-1.80430687395
5501000000,0.595991469511,-0.389001262977,-1.80692195575
5523000000,0.595991472952,-0.389001248591,-1.80691461121
5541000000,0.596652930266,-0.376285539312,-1.8121448188
5561000000,0.597008783482,-0.369928096519,-1.81475282685
5581000000,0.597380764647,-0.363573746288,-1.81736111725
5601000000,0.597380764647,-0.363573746288,-1.81736111725
5621000000,0.598177024846,-0.350866818145,-1.82258803129
5641000000,0.598599449518,-0.344514933212,-1.82520314711
5661000000,0.599038600545,-0.338164287739,-1.82781172482
5681000000,0.599038603989,-0.338164274564,-1.82780859268
5701000000,0.599967791418,-0.325466952677,-1.83303581514
5721000000,0.600458210748,-0.319119606235,-1.83564793258
5741000000,0.600964232473,-0.312774379846,-1.83826306462
5761000000,0.601486681599,-0.306431642318,-1.84087232583
5781000000,0.602026122686,-0.300089360396,-1.84348189564
5801000000,0.602583055171,-0.293748872933,-1.84609702812
5821000000,0.603155889168,-0.287409753743,-1.84870676846
5841000000,0.603745416033,-0.281072277791,-1.85132190176
5861000000,0.604351639206,-0.274736459362,-1.85393193595
5881000000,0.604974540568,-0.268402389977,-1.85654706682
5901000000,0.605614126426,-0.262070076325,-1.85915973294
5920000000,0.605614126426,-0.262070076325,-1.85915973294
5941000000,0.606943317832,-0.24941094429,-1.86438757662
5961000000,0.607632918907,-0.243084196791,-1.86699804725
5983000000,0.608339177265,-0.236759407981,-1.86961316487
6000000000,0.60833918456,-0.236759384186,-1.86960873003
6021000000,0.609802458172,-0.224116046649,-1.87483465946
6041000000,0.610558671838,-0.217797349729,-1.87744976403
6061000000,0.611331530578,-0.211480758781,-1.88006282952
6082000000,0.612121021376,-0.205166341092,-1.88267792301
6101000000,0.612927936944,-0.198854356099,-1.88528910384
6121000000,0.613750683705,-0.192544386098,-1.88790037324
6141000000,0.614590048064,-0.186236713857,-1.8905154471
6161000000,0.615446029208,-0.179931365343,-1.89312872233
6181000000,0.616318613249,-0.173628407673,-1.89574378079
6201000000,0.617207806287,-0.167327847823,-1.89835538819
6221000000,0.618113585397,-0.161029778647,-1.9009704296
6241000000,0.619035957289,-0.154734205061,-1.90358220001
6261000000,0.619974914635,-0.14844117407,-1.90619410247
6281000000,0.620930438177,-0.142150763749,-1.9088091151
6301000000,0.621902537671,-0.13586297158,-1.91142259102
6321000000,0.622891203057,-0.129577851905,-1.91403608175
6341000000,0.623896409984,-0.123295489836,-1.91665106295
6361000000,0.624918196324,-0.117015805071,-1.91926300151
6381000000,0.625956520239,-0.110738944455,-1.9218744158
6402000000,0.627011347471,-0.10446502177,-1.92448936035
6421000000,0.628083483599,-0.0981942608512,-1.92710222425
6441000000,0.629171353415,-0.0919261804245,-1.92971714206
6461000000,0.630275750511,-0.0856610422472,-1.93232695407
6481000000,0.631396639352,-0.0793989619203,-1.93493632974
6501000000,0.632534016582,-0.0731402621185,-1.93755120432
6521000000,0.633687883848,-0.0668843731602,-1.94016299055
6541000000,0.634858229095,-0.0606316430741,-1.94277448744
6562000000,0.636045039747,-0.0543821278884,-1.94538931731
6581000000,0.637248311159,-0.0481358608834,-1.9479961045
6601000000,0.63846803741,-0.0418928796039,-1.95061089921
6621000000,0.63970421165,-0.0356532235191,-1.95321612117
6641000000,0.640956821717,-0.0294169431507,-1.95582077138
6661000000,0.642225856594,-0.0231840857231,-1.95843550998
6681000000,0.643511310231,-0.0169546852161,-1.96104525632
6701000000,0.644813178414,-0.0107287757165,-1.96365014752
6721000000,0.646131440287,-0.00450642860686,-1.96626482863
6741000000,0.647466107147,0.00171236358998,-1.96886979784
6761000000,0.648817902673,0.00792717065665,-1.97148443852
6781000000,0.65018531283,0.0141386338661,-1.97409434319
6802000000,0.6515690801,0.0203463661,-1.97670894161
6821000000,0.65296921039,0.0265503624681,-1.97931434281
6841000000,0.654385672319,0.0327505301299,-1.98192889732
6861000000,0.654385683174,0.0327505551087,-1.98192008902
6881000000,0.657267601143,0.0451393239534,-1.98714066505
6901000000,0.658733029948,0.0513278239849,-1.98975515046
6921000000,0.660214761957,0.0575123526016,-1.99236550635
6941000000,0.661712783867,0.0636928607008,-1.99497994352
6961000000,0.663227089462,0.0698693152696,-1.9975863944
6982000000,0.664757662278,0.0760416608602,-2.00020078162
7001000000,0.666304501584,0.0822098768787,-2.00280750928
7021000000,0.666304503054,0.0822098800774,-2.00280381325
7039000000,0.667867585167,0.0883738959949,-2.00541453243
7061000000,0.671043947011,0.100688497884,-2.01063958433
7081000000,0.672656453825,0.10683934298,-2.01325383915
7101000000,0.674284419595,0.112986186694,-2.01586118836
7121000000,0.675928578071,0.119128629933,-2.01846883793
7141000000,0.677588914196,0.125266624388,-2.02108300814
7161000000,0.679265420835,0.131400137247,-2.02369399632
7181000000,0.680958826229,0.137528760214,-2.02630810806
7201000000,0.682667636457,0.143653180224,-2.0289161052
7222000000,0.684393321553,0.149772624676,-2.03152434914
7241000000,0.686134383007,0.155887772912,-2.03413836976
7261000000,0.686134384577,0.155887776063,-2.03413556708
7281000000,0.689665560689,0.168103572205,-2.03936351441
7301000000,0.691455651877,0.174204141059,-2.04197208059
7321000000,0.693261077124,0.180300258758,-2.04458086205
7341000000,0.695082558234,0.18639150534,-2.04719472244
7361000000,0.696920086785,0.192477848615,-2.04980611532
7381000000,0.698774381606,0.198558864589,-2.05241754273
7401000000,0.700644693229,0.204634885611,-2.05503130189
7421000000,0.702530282433,0.210706261411,-2.05764047789
7441000000,0.704431862169,0.216772556404,-2.06025416738
7461000000,0.706349425234,0.222833741626,-2.06286354404
7481000000,0.708282951502,0.228889762858,-2.06547716222
7501000000,0.708282954839,0.228889769058,-2.06547316363
7521000000,0.712198993778,0.240986778351,-2.07069658107
7541000000,0.714180432152,0.247027024472,-2.07331006422
7561000000,0.716177176102,0.253061064972,-2.07592004557
7581000000,0.718191051656,0.259090273716,-2.07853347805
7601000000,0.720220090308,0.26511447914,-2.08114357656
7621000000,0.722264994805,0.27113322862,-2.08375693169
7641000000,0.724325755522,0.277146490318,-2.08636871043
7661000000,0.726402354495,0.283154216646,-2.08898198661
7681000000,0.726644478414,0.283813935281,-2.08919092979
7701000000,0.726639807742,0.28381433878,-2.08919468772
7721000000,0.725688199784,0.287453434801,-2.09608810596
7741000000,0.724507579046,0.291161264803,-2.09982201991
7761000000,0.723417343078,0.294989282418,-2.10643450327
7781000000,0.722339625426,0.298802301951,-2.11304874199
7801000000,0.721300663812,0.30264386155,-2.1196609801
7821000000,0.720267349798,0.306459547799,-2.12627663747
7841000000,0.719266317963,0.310292724448,-2.13289154935
7861000000,0.718304432534,0.314153394883,-2.13950343077
7881000000,0.717359685231,0.318006550428,-2.14611759484
7901000000,0.716449532406,0.321879009468,-2.15272922704
7921000000,0.715559663364,0.325748577859,-2.15934262859
7941000000,0.714701426591,0.329632113145,-2.16595400079
7961000000,0.713867176274,0.333517924646,-2.17256595856
7981000000,0.713865540978,0.333515548752,-2.17256641751
8001000000,0.712279331519,0.341308270192,-2.1857884814
8021000000,0.711522343138,0.345207540546,-2.19239989705
8041000000,0.710793692733,0.349114473061,-2.19901085378
8061000000,0.710092110087,0.353027006715,-2.2056213877
8081000000,0.709416188566,0.356942996657,-2.21223178298
8101000000,0.708767080411,0.36086378665,-2.21884201678
8121000000,0.708143312579,0.364787223714,-2.2254521371
8145000000,0.707546792423,0.368715581461,-2.23206205204
8161000000,0.706975542112,0.372646114773,-2.23867185162
8181000000,0.706431284763,0.376579346105,-2.24528149843
8201000000,0.705914522787,0.380517159265,-2.2518909315
8221000000,0.705423096025,0.384458130088,-2.25850023509
8241000000,0.704958416614,0.388402329031,-2.26510932968
8261000000,0.704520192514,0.392349195529,-2.27171829631
8281000000,0.704108391775,0.396298495328,-2.2783270459
8301000000,0.703723118361,0.400250155304,-2.2849356392
8321000000,0.703364259141,0.404203851607,-2.29154403226
8341000000,0.703032132937,0.408159753629,-2.29815230256
8361000000,0.702726268897,0.412117140276,-2.30476032886
8382000000,0.702447048076,0.416076250131,-2.31136820516
8401000000,0.702194221226,0.420036622404,-2.31797585467
8421000000,0.701967972984,0.423998273596,-2.32458333004
8441000000,0.701768216113,0.427960926187,-2.33119059283
8461000000,0.701595061343,0.431924514065,-2.33779769288
8481000000,0.701448398394,0.43588874075,-2.3444045591
8501000000,0.701328306204,0.439853507963,-2.35101125569
8521000000,0.701234723134,0.443818574668,-2.3576177459
8541000000,0.701167724345,0.447783838694,-2.36422399899
8561000000,0.701124784312,0.451947139204,-2.37116162674
8581000000,0.701113830041,0.455713462728,-2.37743593163
8601000000,0.701126509365,0.459676818219,-2.3840415407
8621000000,0.701165725183,0.463641002001,-2.39064693682
8641000000,0.701232816535,0.467604432418,-2.39725213569
8661000000,0.701325114525,0.471567009777,-2.40385710483
8682000000,0.70144393843,0.475528511208,-2.41046604228
8701000000,0.701589902366,0.479488081379,-2.41707056304
8722000000,0.701761707003,0.483446869993,-2.42367486292
8741000000,0.701960653031,0.487403396156,-2.43027894255
8761000000,0.702185518251,0.491358876794,-2.4368827578
8781000000,0.702436834984,0.495312389018,-2.44348635125
8801000000,0.702714635208,0.499263794876,-2.4500896999
8821000000,0.703018773086,0.503212811373,-2.45669282461
8841000000,0.703349452304,0.507159443547,-2.46329569199
8861000000,0.703706373797,0.511103289099,-2.46989832842
8881000000,0.704089777071,0.515044380402,-2.47650071088
8901000000,0.704500130159,0.518981742218,-2.48310283409
8921000000,0.704936260704,0.522916662355,-2.4897047235
8941000000,0.705398804319,0.526848291667,-2.49630634892
8961000000,0.705887477777,0.530776263171,-2.5029077255
8981000000,0.706402610099,0.534700666483,-2.50950883714
9001000000,0.706943838475,0.538621079119,-2.51610969421
9021000000,0.707511454921,0.542537558493,-2.52271028424
9041000000,0.708105098144,0.546449692506,-2.52931061297
9061000000,0.708724915039,0.550357434343,-2.53591067322
9081000000,0.709371041181,0.554260723544,-2.54251046482
9101000000,0.710043705986,0.558158443946,-2.54910999371
9121000000,0.71074202258,0.562052075467,-2.55570923597
9141000000,0.711466273995,0.565940547654,-2.56230820546
9162000000,0.712217128021,0.569823043598,-2.5689069111
9182000000,0.712993846031,0.573700036455,-2.57550532612
9201000000,0.713796608514,0.577571484948,-2.58210344086
9221000000,0.714624782589,0.581437958454,-2.58870202553
9241000000,0.715479211859,0.585297638008,-2.5953061457
9261000000,0.716359502201,0.589151224394,-2.60190343164
9281000000,0.717265048276,0.592999287137,-2.60850041217
9301000000,0.71819635303,0.596840905591,-2.61509711427
9321000000,0.719153333028,0.600675885885,-2.62169351047
9341000000,0.720135951544,0.604504063043,-2.62828962651
9361000000,0.721143855104,0.608325097429,-2.63488542854
9381000000,0.722178054575,0.612138346071,-2.64148093623
9401000000,0.723237013889,0.615944947687,-2.64807639091
9421000000,0.724321867179,0.619743253369,-2.65467442754
9441000000,0.725431932877,0.623534877841,-2.66126905151
9461000000,0.726567268583,0.627318643559,-2.66787190407
9481000000,0.727727950503,0.631094455276,-2.67446590307
9501000000,0.728913725277,0.634862046296,-2.68105956546
9521000000,0.730124806356,0.638621384194,-2.68765294212
9541000000,0.731360725777,0.64237210257,-2.69424597585
9561000000,0.732621714204,0.646114177928,-2.70083869122
9581000000,0.73390796257,0.649847559965,-2.70743112088
9601000000,0.735219147979,0.653571957809,-2.71402323132
9621000000,0.736554949244,0.657287090671,-2.72061498636
9641000000,0.737915822414,0.660993027788,-2.72720645308
9661000000,0.739301179391,0.664689373166,-2.7337975581
9681000000,0.740711485618,0.668376193788,-2.74038837414
9701000000,0.742146140313,0.672053098291,-2.74697882235
9721000000,0.743605350278,0.675720041902,-2.75356893803
9741000000,0.745163133994,0.679559380875,-2.76048923927
9761000000,0.746597739605,0.68302275643,-2.76674826481
9781000000,0.748130500875,0.686658831021,-2.77333739604
9801000000,0.749687320903,0.690284339889,-2.77992617306
9821000000,0.751268233505,0.693899039018,-2.78651460864
9844000000,0.752873550868,0.697502910887,-2.7931027545
9861000000,0.754502629015,0.701095588125,-2.79969050674
9881000000,0.756155976071,0.70467712132,-2.80627796877
9901000000,0.757833085145,0.708247199628,-2.81286505917
9921000000,0.759534155996,0.71180576082,-2.8194518311
9941000000,0.761258680707,0.7153525052,-2.82603819873
9961000000,0.763007160381,0.718887467388,-2.8326242744
9981000000,0.764778919282,0.722410300228,-2.83920993994
10001000000,0.766574750361,0.725920153869,-2.84579532187
10021000000,0.768393461123,0.729418469145,-2.8523802728
10041000000,0.770235716583,0.73290434879,-2.85896487104
10062000000,0.772101287802,0.736377595002,-2.86554917961
10081000000,0.774084212227,0.74001057879,-2.87246318769
10101000000,0.775901892387,0.743284697674,-2.87871671733
10121000000,0.777835459142,0.74671862625,-2.88529984461
10141000000,0.779793162146,0.750139748023,-2.89188271432
10161000000,0.781774252332,0.753547600516,-2.89846515382
10181000000,0.78200839725,0.753843223996,-2.89894309206
10201000000,0.782015149192,0.753849742719,-2.89921152875
10221000000,0.811269589167,0.763196806184,-2.90415258587
10242000000,0.842988554952,0.773207586498,-2.90973387685
10261000000,0.876025932817,0.783341368486,-2.91505854392
10281000000,0.909244897191,0.793337828095,-2.92038283645
10301000000,0.942628461154,0.803181359496,-2.92570674041
10321000000,0.975953420032,0.812822408847,-2.93103033795
10341000000,1.00967368055,0.822356999394,-2.93635360684
10361000000,1.04310021469,0.831640086114,-2.94167659179
10381000000,1.07692701584,0.840813737292,-2.94699921071
10401000000,1.11045126303,0.849737804804,-2.95232158849
10421000000,1.14415720817,0.858507877854,-2.95764360304
10441000000,1.17777511335,0.867073115874,-2.96296537221
10461000000,1.21148613335,0.875467290935,-2.96828680518
10481000000,1.24519373756,0.883673229885,-2.97360796669
10501000000,1.27901702865,0.8917111201,-2.97892875312
10521000000,1.31281063789,0.899556735778,-2.98424930285
10541000000,1.34670612633,0.907231281856,-2.98956946726
10561000000,1.38058328461,0.914706669342,-2.9948893784
10581000000,1.38063986853,0.914715001171,-2.99489133101
10601000000,1.44856278502,0.92914845227,-3.00554850134
10621000000,1.48255452232,0.936089701122,-3.01086750176
10643000000,1.48258048465,0.936093101674,-3.01086745646
10661000000,1.55067429467,0.949422163158,-3.02150451945
10681000000,1.58482347747,0.95582467809,-3.0268224884
10701000000,1.61895624818,0.962039345266,-3.03214023511
10722000000,1.65316965605,0.968077011666,-3.03745757142
10742000000,1.68907799637,0.974219211931,-3.04303952899
10761000000,1.72164136516,0.979591581251,-3.04809166625
10781000000,1.75593860865,0.985079159379,-3.05340776515
10801000000,1.79022582292,0.990381705637,-3.05872392567
10821000000,1.82455635771,0.995502708436,-3.06403971726
10841000000,1.82455635771,0.995502708436,-3.06403971726
10861000000,1.89328904318,1.00519493945,-3.07467034229
10881000000,1.92768221662,1.00976557237,-3.07998522851
10901000000,1.96211376712,1.01415376584,-3.08529968596
10921000000,1.99655406836,1.01835772865,-3.09061393148
10942000000,2.0310260924,1.02236943648,-3.09592774625
10961000000,2.06551546838,1.02620656111,-3.10124123277
10981000000,2.10001913266,1.02985974806,-3.10655451272
11001000000,2.13454543762,1.03332927723,-3.11186735296
11021000000,2.16908645525,1.03661483874,-3.11717998723
11041000000,2.20364597572,1.03971649372,-3.12249223813
11061000000,2.23822062678,1.0426248969,-3.12780422632
11081000000,2.27281223725,1.04535845398,-3.13311576502
11101000000,2.30741621124,1.0479078301,-3.13842710072
11122000000,2.34203454179,1.05027299283,3.13944731982
11141000000,2.37666481731,1.05245387979,3.13413676186
11162000000,2.38061544292,1.05262845729,3.13373837571
11181000000,2.38076345284,1.05263249191,3.13352768031
11201000000,2.38610848996,1.0548691362,3.12807252523
11221000000,2.39362737342,1.05725168976,3.1206039889
11241000000,2.39969137504,1.05961986284,3.1147325931
11261000000,2.40517737908,1.06197066177,3.11097115301
11281000000,2.40532306089,1.06204355089,3.11061004729
11301000000,2.40532086105,1.06204834964,3.1106052181
11321000000,2.40174081479,1.06282569008,3.10689914159
11341000000,2.39734928434,1.06373036397,3.10503245385
11361000000,2.39337057628,1.06455952418,3.10384885355
11381000000,2.38919047067,1.06543741605,3.10206909063
11401000000,2.3848514262,1.06632924673,3.10029060847
11421000000,2.3806746869,1.06722239209,3.09851090175
11442000000,2.37649972346,1.06812305367,3.09673120351
11461000000,2.3721345352,1.06904000225,3.0949520234
11481000000,2.36787934988,1.06995999238,3.0931726971
11501000000,2.36370945067,1.07088365791,3.09139304925
11521000000,2.35929634643,1.07186187362,3.08952634882
11541000000,2.35533756735,1.07275574933,3.08783400738
11561000000,2.35109940742,1.07370600094,3.08605478144
11581000000,2.34687245615,1.07466341432,3.08427555378
11601000000,2.3427113256,1.0756248063,3.08249602632
11621000000,2.33855198747,1.07659367133,3.08071652282
11641000000,2.33433115446,1.07757391404,3.07893738544
11661000000,2.33017547343,1.07855781659,3.07715793936
11681000000,2.32596258815,1.07955303839,3.07537885913
11701000000,2.32181062766,1.08055232905,3.07359947674
11721000000,2.31761064471,1.08156216895,3.07182042645
11741000000,2.31342422064,1.0825788024,3.07004141228
11761000000,2.30927788738,1.08360025254,3.06826207904
11781000000,2.30489877331,1.08468127568,3.06639590117
11801000000,2.30096279078,1.08566795937,3.06470383245
11821000000,2.29681070824,1.08671273675,3.06292473896
11841000000,2.2926720883,1.08776402776,3.06114548948
11861000000,2.28852207151,1.08882383991,3.05936658738
11881000000,2.28438741063,1.08989038257,3.05758739238
11901000000,2.28024515527,1.09096517647,3.05580855262
11921000000,2.2761144853,1.09204660551,3.05402938423
11941000000,2.27198024023,1.09313556559,3.05225037987
11961000000,2.26785356957,1.09423145406,3.05047125363
11981000000,2.26372519502,1.09533509814,3.04869073677
12001000000,2.25959972193,1.09644608321,3.04691199762
12021000000,2.25547919993,1.09756420606,3.04513293357
12041000000,2.25135967587,1.09868983443,3.0433540621
12061000000,2.24724334959,1.09982311374,3.04157506974
12081000000,2.24312748468,1.10096360706,3.03979530733
12101000000,2.23901534394,1.10211131637,3.03801631845
12121000000,2.23490464953,1.10326648067,3.0362279959
12141000000,2.23079681246,1.10442932005,3.03444906112
12161000000,2.22669029325,1.10559927063,3.0326704671
12181000000,2.22258674189,1.10677650105,3.0308915555
12201000000,2.21848518268,1.10796112096,3.02911300924
12221000000,2.21438546697,1.1091531472,3.02733448099
12241000000,2.21028849456,1.11035247553,3.02555562645
12261000000,2.20619348729,1.11155919207,3.02377696208
12281000000,2.20210096648,1.11277323368,3.02199814317
12301000000,2.19801025285,1.11399467877,3.02021968597
12321000000,2.19392223589,1.11522341812,3.01844090186
12341000000,2.18983649035,1.11645949994,3.01666213486
12361000000,2.18575255226,1.11770298049,3.01488390073
12381000000,2.18167117636,1.11895414353,3.01310577117
12401000000,2.17759232328,1.12021223076,3.01132705263
12421000000,2.17351569005,1.12147765707,3.00955084367
12441000000,2.16944149717,1.12275039184,3.00777215904
12461000000,2.16536946097,1.12403047061,3.00599383383
12481000000,2.16129998014,1.12531783736,3.00421518089
12501000000,2.15723269942,1.12661253805,3.00243688673
12522000000,2.15316783459,1.12791454085,3.00065860762
12541000000,2.14910556818,1.12922418689,2.9988800133
12562000000,2.14504561487,1.13054078514,2.99710158216
12581000000,2.14504561487,1.13054078514,2.99710158216
12601000000,2.13693353172,1.13319613915,2.99354478502
12621000000,2.13288095195,1.13453458551,2.99176623441
12641000000,2.12883118334,1.13588025747,2.98998804265
12661000000,2.12478354819,1.13723325615,2.98820952209
12681000000,2.12073819291,1.13859355859,2.98643135759
12701000000,2.11669555476,1.13996109487,2.98465286432
12721000000,2.11265519756,1.14133593082,2.98287472642
12741000000,2.10861766358,1.14271834895,2.98109627227
12761000000,2.10458245168,1.14410769566,2.97931814961
12781000000,2.10055029423,1.14550420117,2.97754004848
12801000000,2.09652037425,1.14690800315,2.97576161933
12821000000,2.09249305109,1.14831941314,2.97398338626
12841000000,2.0884683119,1.14973769901,2.97220497131
12861000000,2.08444615864,1.15116321055,2.97042691872
12881000000,2.08042664467,1.15259594311,2.96864853761
12901000000,2.07640992367,1.15403586848,2.96687050936
12921000000,2.07239575414,1.15548340736,2.96509215903
12942000000,2.07239553751,1.15548344578,2.96509249833
12961000000,2.06738179918,1.15730016107,2.96287150455
12981000000,2.06337274588,1.15876344296,2.96109344776
13001000000,2.05936718494,1.16023402706,2.95931513032
13021000000,2.05536043836,1.16171253219,2.95753698679
13041000000,2.05136031015,1.16319751254,2.95575868439
13061000000,2.04736595427,1.16468910405,2.95398073424
13081000000,2.04337300305,1.1661881205,2.95220279387
13101000000,2.03938108842,1.16769463786,2.9504245221
13121000000,2.03539287018,1.16920814633,2.94864660085
13141000000,2.03140649683,1.1707290017,2.94686834803
13161000000,2.02742349034,1.17225690534,2.94509044491
13181000000,2.02344270963,1.17379207982,2.94331221011
13201000000,2.01946524321,1.17533468777,2.94153497449
13221000000,2.01549010676,1.17688416501,2.9397567494
13241000000,2.01151825516,1.17844107686,2.93798463827
13261000000,2.00754895588,1.18000480204,2.93620660325
13281000000,2.00358246117,1.18157605749,2.93442841212
13301000000,1.99961867191,1.1831544689,2.93265041379
13321000000,1.99565775806,1.1847396359,2.93087483635
13341000000,1.99169994017,1.18633225265,2.92909668151
13361000000,1.98774517969,1.18793157777,2.92732303355
13381000000,1.98379305324,1.18953768799,2.92554486317
13401000000,1.97984402063,1.19115162322,2.92376673277
13421000000,1.97589769873,1.19277233596,2.92198898869
13441000000,1.97195413218,1.19440018549,2.92021182741
13461000000,1.96801392318,1.19603503755,2.91843369453
13481000000,1.9640766727,1.19767505108,2.91665588751
13501000000,1.96014240938,1.19932405917,2.91487795176
13521000000,1.9562112158,1.20098013732,2.91309983823
13541000000,1.95228305419,1.20264328142,2.91132172826
13561000000,1.948358291,1.20431340201,2.9095441301
13581000000,1.94443622803,1.20599066017,2.90776602981
13601000000,1.94051778908,1.20767483467,2.90598827186
13621000000,1.93660209613,1.20936613154,2.90421034941
13642000000,1.93268957818,1.21106483157,2.90243244134
13661000000,1.92878010352,1.21277058351,2.90065452525
13681000000,1.92487350486,1.21448303408,2.89887644042
13701000000,1.92096993065,1.21620253127,2.89709870083
13721000000,1.9170696075,1.21792901826,2.89532062836
13741000000,1.91317244025,1.21966251617,2.89354255925
13761000000,1.9092787641,1.22140293744,2.89176482983
13781000000,1.90538794573,1.22315044,2.88998676673
13801000000,1.90150064452,1.22490485326,2.88820904256
13821000000,1.89761651087,1.22666662963,2.88643132261
13841000000,1.8937353092,1.22843509746,2.88465326534
13861000000,1.88985747098,1.23021050722,2.8828753793
13881000000,1.8859827426,1.23199292345,2.88109732731
13901000000,1.88211163473,1.23378220799,2.87931978009
13921000000,1.87824342923,1.23557854981,2.87754173117
13941000000,1.87418517639,1.23747342669,2.87567322918
13961000000,1.870518703,1.23919194005,2.87398614848
13981000000,1.8666591701,1.24100987947,2.87220826334
14001000000,1.86639896966,1.24109256644,2.87214819668
14021000000,1.8663978651,1.24109715946,2.8721451065
14041000000,1.85298054442,1.24698099904,2.86675266619
14061000000,1.83799091366,1.25357583614,2.86133818605
14081000000,1.82372885839,1.26004937146,2.85803249709
14101000000,1.80881021409,1.26680247614,2.85261765872
14121000000,1.79395610013,1.27362814228,2.84720342476
14141000000,1.77903252538,1.28056734818,2.84178895764
14161000000,1.76197062012,1.28863102085,2.83555977197
14181000000,1.74790878614,1.29537859307,2.83041832528
14201000000,1.73315012107,1.30255463577,2.82500353145
14221000000,1.71846450543,1.3097990601,2.81958868184
14241000000,1.70375543963,1.31714930191,2.81417416878
14261000000,1.68914973828,1.32455319156,2.80875928344
14281000000,1.6745229734,1.33205803935,2.80334472652
14301000000,1.66000038387,1.33962466358,2.79792980793
14321000000,1.64545981988,1.3472870441,2.79251520865
14341000000,1.63099343907,1.35502140196,2.7871004196
14361000000,1.61659508172,1.36282000105,2.78168542966
14381000000,1.60219199948,1.37071488972,2.77627074791
14401000000,1.58787955458,1.37866973204,2.77085569355
14422000000,1.57357507399,1.38671629904,2.76544093967
14441000000,1.55935020608,1.39482638279,2.76002581323
14461000000,1.54514540063,1.40302356705,2.75461098002
14481000000,1.5310097653,1.41128787921,2.74919577311
14501000000,1.51690378315,1.41963543002,2.74378085339
14521000000,1.50285353319,1.42805530151,2.73836572374
14541000000,1.48885483389,1.43654904747,2.73295038429
14561000000,1.47489823309,1.44512065672,2.72753516091
14581000000,1.46099286708,1.45376606374,2.72211972495
14601000000,1.44712857223,1.46248972367,2.71670456402
14621000000,1.43331818386,1.47128578738,2.7112890247
14641000000,1.41955198478,1.48015859769,2.70587375549
14661000000,1.40583819777,1.48910427367,2.70045810578
14681000000,1.39217086171,1.4981255293,2.69504272113
14701000000,1.37855565314,1.50722448792,2.6896272777
14721000000,1.36498978908,1.51639259898,2.68421144687
14741000000,1.35147277389,1.52563494582,2.67879587372
14761000000,1.33800753446,1.53494999949,2.67337991652
14781000000,1.32459255032,1.54433844587,2.66796421047
14801000000,1.31122951921,1.55379934573,2.66254811766
14821000000,1.29791988291,1.56333683736,2.65713232439
14841000000,1.28466063669,1.57294247262,2.65171608167
14861000000,1.27145369646,1.58262014799,2.64630048111
14881000000,1.25829980253,1.59236939094,2.64088409473
14901000000,1.2451990741,1.60219006168,2.63546794441
14921000000,1.23215208608,1.61208176873,2.63005140077
14941000000,1.21915910588,1.62204428739,2.62463493205
14961000000,1.20622056594,1.63207729824,2.61921822379
14981000000,1.19333680182,1.64218053403,2.6138018974
15001000000,1.18051045953,1.6523574838,2.6083850197
15021000000,1.16773742484,1.66260025511,2.60296835796
15041000000,1.15502238145,1.67291625921,2.59755145492
15061000000,1.14236154376,1.68329739679,2.59213445463
15081000000,1.12975725606,1.69374733425,2.58671736198
15101000000,1.11721257419,1.70426928908,2.58130002275
15124000000,1.10472296977,1.71485560652,2.57588273438
15141000000,1.09229119815,1.72550969245,2.57046519524
15161000000,1.07991977582,1.73623509694,2.56504801061
15181000000,1.0676047092,1.74702381195,2.55963026803
15201000000,1.05534864737,1.75787930357,2.55421272178
15222000000,1.04315179887,1.76880135148,2.54879491777
15241000000,1.03101452359,1.7797896375,2.54337685475
15261000000,1.01893728335,1.79084377008,2.53795883186
15281000000,1.00692033527,1.80196349429,2.53254054672
15301000000,0.994964175804,1.81314838615,2.52712244731
15321000000,0.983069067124,1.82439818143,2.52170423096
15341000000,0.971235276747,1.83571261189,2.51628559939
15361000000,0.959463243485,1.84709128362,2.51086684881
15381000000,0.947753384915,1.85853381232,2.50544827391
15401000000,0.936105977726,1.8700399136,2.50002957469
15423000000,0.92452130355,1.88160929843,2.49461045659
15441000000,0.912999800619,1.89324155695,2.48919135914
15461000000,0.901541755131,1.90493639044,2.48377198729
15481000000,0.890147588817,1.91669339277,2.4783527778
15501000000,0.878817532943,1.92851230241,2.47293314525
15521000000,0.867552029002,1.94039269007,2.46751366985
15541000000,0.85635130916,1.95233428881,2.46209376969
15561000000,0.845215822411,1.96433665463,2.45667416515
15581000000,0.834148575677,1.97640293839,2.45125388487
15601000000,0.823147151,1.98852935384,2.44583130602
15621000000,0.812209077951,2.00071211356,2.44041084629
15641000000,0.801337323238,2.01295441602,2.43499038799
15661000000,0.790535402007,2.02525897887,2.42956964414
15681000000,0.779797511168,2.03761906209,2.42414903579
15701000000,0.769127368316,2.05003720388,2.41872827707
15721000000,0.758524924791,2.06251335462,2.41330708756
15741000000,0.747990631165,2.07504702811,2.40788602598
15761000000,0.73752469867,2.08763794793,2.40246467057
15781000000,0.727127462893,2.10028572344,2.39704315964
15801000000,0.716799212484,2.1129900033,2.39162135332
15821000000,0.706540314816,2.12575035927,2.38619952685
15841000000,0.696351065552,2.13856642546,2.38077767734
15861000000,0.686231700403,2.1514378906,2.37535539079
15881000000,0.676182608979,2.16436429271,2.36993321457
15901000000,0.666204013889,2.17734532698,2.36451059957
15921000000,0.656296288341,2.19038053829,2.35908808986
15941000000,0.646459672365,2.20346959867,2.35366527505
15961000000,0.636694461771,2.21661212211,2.34824215502
15981000000,0.627000999253,2.22980767062,2.34281913223
16001000000,0.617379507473,2.24305592499,2.33739566733
16023000000,0.607830331462,2.25635643667,2.33197229439
16041000000,0.598353709292,2.26970886436,2.32654847815
16061000000,0.588949977051,2.28311275986,2.32112474882
16081000000,0.579619358586,2.29656779061,2.31570057477
16101000000,0.570365422891,2.31007650893,2.31027648464
16121000000,0.561181912387,2.323632571,2.30485207542
16141000000,0.552072388725,2.33723853629,2.29942735237
16161000000,0.543037112952,2.35089401377,2.29400244346
16181000000,0.534076190845,2.36459879108,2.28857760716
16201000000,0.525190221388,2.37835208828,2.2831523214
16221000000,0.516379324703,2.39215366614,2.27772710316
16241000000,0.507643726508,2.40600316366,2.27230143422
16263000000,0.498983738161,2.41990011513,2.26687582803
16281000000,0.490399588135,2.43384414864,2.26145002449
16301000000,0.481891507974,2.44783488609,2.25602376908
16321000000,0.473459802179,2.46187185627,2.25059756782
16341000000,0.465104682932,2.47595469682,2.2451709137
16361000000,0.456826440387,2.49008294469,2.23974430838
16381000000,0.448625287226,2.50425622968,2.23431724941
16401000000,0.440504982688,2.51847681639,2.22889023611
16421000000,0.432458766552,2.53273889349,2.22346288814
16441000000,0.424490407938,2.54704471208,2.21803521023
16461000000,0.41659998594,2.56139406143,2.21260756881
16481000000,0.408788030161,2.57578612999,2.20717947121
16501000000,0.40105464479,2.59022066719,2.20175140489
16521000000,0.393017947064,2.60542239689,2.19604945013
16541000000,0.385827681925,2.61921768467,2.19089439932
16561000000,0.378331799321,2.63377748548,2.18546530776
16581000000,0.370914861555,2.64837783,2.18003637565
16601000000,0.363581325971,2.6630209446,2.17460722308
16621000000,0.356324073229,2.67770146172,2.16917760765
16641000000,0.349146853739,2.69242162833,2.16374800709
16661000000,0.342050104614,2.70718068054,2.15831794649
16681000000,0.335033906973,2.72197838075,2.15288789522
16701000000,0.328098516955,2.7368142266,2.14745738251
16721000000,0.321244137928,2.75168778992,2.14202687384
16741000000,0.314470952877,2.76659867032,2.13659601862
16761000000,0.307782907476,2.7815487874,2.13116493347
16781000000,0.301172731732,2.79653296591,2.12573361237
16801000000,0.294644377568,2.81155311504,2.12030194421
16821000000,0.288197925114,2.82660898172,2.11487026806
16841000000,0.281837575027,2.84170204814,2.10943812984
16861000000,0.2755558402,2.85682746896,2.10400597591
16881000000,0.269356703846,2.87198708418,2.09857335853
16901000000,0.263240252977,2.88718061772,2.09314072353
16921000000,0.257210701186,2.90240949341,2.08770762508
16941000000,0.251264310479,2.9176712013,2.08227439283
16961000000,0.24539741189,2.93296311755,2.07684080334
16981000000,0.239613854093,2.94828730481,2.0714072972
17001000000,0.233914167182,2.96364266172,2.06597321543
17021000000,0.228302226577,2.97903118518,2.060539103
17041000000,0.222770442038,2.99444816469,2.05510462863
17061000000,0.217326716304,3.00989746467,2.04966990481
17081000000,0.211963512951,3.02537424923,2.04423481912
17101000000,0.206684837605,3.04088027669,2.03879958648
17121000000,0.201490805049,3.05641517853,2.03336420386
17141000000,0.196381709055,3.071978227,2.02792835348
17161000000,0.191357631914,3.08756911019,2.0224922453
17181000000,0.186418742703,3.1031873367,2.01705608726
17201000000,0.181565183506,3.11883246463,2.01161966639
17221000000,0.176797084086,3.13450407357,2.00618287985
17241000000,0.172118621248,3.15020353406,2.00074583118
17261000000,0.167521907286,3.16592665076,1.99530841426
17281000000,0.163011107654,3.18167481812,1.98987083404
17301000000,0.158586358093,3.19744757182,1.98443288622
17322000000,0.154247730861,3.21324459532,1.97899497203
17341000000,0.149995492613,3.22906511725,1.97355648765
17361000000,0.14582971731,3.244908801,1.96811793132
17381000000,0.141750520946,3.26077520938,1.96267900378
17401000000,0.137758034372,3.27666386367,1.95723970556
17421000000,0.133852388496,3.29257427741,1.95180032857
17441000000,0.130033697643,3.30850599812,1.94636048191
17461000000,0.126302089234,3.32445853352,1.94092055189
17482000000,0.125816404772,3.32624247578,1.94055141742
17501000000,0.125569015627,3.32689446708,1.93846131737
17521000000,0.129874043731,3.31956632871,1.93518883316
17541000000,0.13454415283,3.31157610748,1.93292876031
17561000000,0.139328578092,3.30319364869,1.92940628868
17581000000,0.144064030806,3.29484546418,1.925883993
17602000000,0.148841237789,3.28628577905,1.92236193381
17621000000,0.15351663551,3.2779037464,1.91884001392
17641000000,0.158215525406,3.26935665323,1.91531832189
17661000000,0.162830742684,3.26094141594,1.91179676355
17681000000,0.167449887204,3.25241344275,1.90827543565
17701000000,0.172004875769,3.2439656602,1.90475423905
17721000000,0.17677789301,3.23501473741,1.9010582551
17741000000,0.181281217892,3.22650446988,1.89753739817
17761000000,0.185742583338,3.21800693676,1.89401675297
17781000000,0.19019294734,3.20944098075,1.89049635278
17801000000,0.194595303662,3.20091234679,1.88697607739
17821000000,0.198984172449,3.19231612535,1.88345605345
17841000000,0.203325720106,3.18375628068,1.87993615192
17861000000,0.207652924031,3.17513016161,1.87641650457
17881000000,0.211933453933,3.16653954065,1.87289697812
17901000000,0.21619879559,3.15788398665,1.8693777084
17921000000,0.22042552632,3.14923860005,1.86585859365
17941000000,0.224614144834,3.14060262806,1.86233963315
17961000000,0.228786257418,3.13190403996,1.85882093163
17981000000,0.232913363388,3.12323838737,1.85530235636
18001000000,0.237020552009,3.11451450065,1.85178404103
18021000000,0.241085946821,3.10581961899,1.8482658469
18041000000,0.245127441814,3.09707936441,1.84474791398
18061000000,0.249130966457,3.08835571831,1.84123010092
18081000000,0.253107292219,3.07959778118,1.83771255201
18101000000,0.25704879173,3.07084581742,1.8341951219
18121000000,0.260961096717,3.06207289295,1.83067792099
18141000000,0.264843042717,3.05328307827,1.82716095043
18161000000,0.268691192644,3.04448947095,1.823644099
18181000000,0.272509772853,3.03567584442,1.82012751676
18201000000,0.27629384922,3.0268546124,1.81661105636
18221000000,0.280048828473,3.01801809677,1.81309482261
18241000000,0.283772702858,3.00916726976,1.80957882546
18261000000,0.287464401183,3.00030647879,1.80606294558
18281000000,0.291125167924,2.99143052708,1.80254734096
18301000000,0.294753979545,2.98254364229,1.79903185261
18321000000,0.298351585889,2.97364256425,1.7955166418
18341000000,0.301915705448,2.96472965521,1.79200154811
18361000000,0.305450051298,2.95580362453,1.78848673141
18381000000,0.308951002673,2.9468652301,1.78497207395
18401000000,0.312420209098,2.93791470909,1.78145757114
18421000000,0.315857787426,2.92895143511,1.7779433516
18441000000,0.319265147398,2.91997640256,1.77442924272
18461000000,0.322640755643,2.91098937952,1.77091542145
18481000000,0.325984470989,2.90199061868,1.76740171264
18501000000,0.329296335683,2.89297982462,1.7638882918
18521000000,0.332576256398,2.88395737927,1.76037502722
18541000000,0.335824202639,2.87492335403,1.75686191803
18561000000,0.339040161504,2.86587772406,1.75334910017
18581000000,0.342224065837,2.8568207555,1.74983639237
18601000000,0.345375901586,2.84775243009,1.74632397818
18621000000,0.34849561102,2.83867297238,1.74281167312
18641000000,0.351583171091,2.82958241505,1.73929966391
18661000000,0.354638538169,2.82048090992,1.7357878105
18681000000,0.357661675939,2.81136856989,1.73227615999
18701000000,0.360652549702,2.80224550029,1.72876466431
18721000000,0.363611124574,2.79311180961,1.72525342019
18741000000,0.366535712259,2.78396735647,1.7217423333
18761000000,0.369429582014,2.77481277254,1.71823154371
18781000000,0.372291045176,2.76564793229,1.71472096171
18801000000,0.375118417589,2.75647267453,1.71121048721
18821000000,0.377914971909,2.74728761919,1.70770021024
18841000000,0.380687304493,2.73809385373,1.7041902431
18861000000,0.383418796716,2.72888913539,1.70068048993
18881000000,0.38611773594,2.71967463429,1.69717083416
18901000000,0.388782407833,2.71045038687,1.69366150102
18921000000,0.391416108299,2.70121683447,1.69015225414
18941000000,0.394017140909,2.69197395002,1.6866433316
18961000000,0.396585479569,2.68272180412,1.6831344999
18981000000,0.399121090171,2.67346054227,1.67962593362
19001000000,0.401623943714,2.66419027138,1.6761176334
19021000000,0.4040940106,2.65491110537,1.67260942308
19041000000,0.406529599711,2.64562298185,1.66910154431
19061000000,0.408934002863,2.63632638377,1.66559374967
19081000000,0.411305534079,2.62702123417,1.66208628659
19101000000,0.413644163552,2.61770766452,1.65857891125
19121000000,0.415949864725,2.6083857785,1.65507187189
19141000000,0.418222609254,2.59905570413,1.65156491451
19161000000,0.420462371077,2.58971754849,1.64805823351
19181000000,0.422669123764,2.58037142809,1.64455183033
19201000000,0.422867729378,2.57931735258,1.64428689954
19221000000,0.42290113822,2.57892312181,1.64307048685
19241000000,0.424871384123,2.57649929286,1.63878787919
19262000000,0.427018263637,2.57374842214,1.63417593925
19281000000,0.429144194642,2.57112532311,1.63137946421
19301000000,0.431265984339,2.56835403633,1.62676809027
19321000000,0.433371652592,2.56563163034,1.62215714561
19341000000,0.435465081998,2.56289082403,1.61754647923
19361000000,0.437547847206,2.56008985587,1.61293593961
19381000000,0.439616433831,2.55730372086,1.60832575205
19401000000,0.441672736019,2.55448325302,1.60371576781
19421000000,0.443713996525,2.55171402456,1.59910629122
19441000000,0.445743833095,2.54887429055,1.59449686702
19461000000,0.447759779847,2.54604934281,1.58988787604
19481000000,0.449762686955,2.54319921843,1.58527909024
19501000000,0.451752228292,2.5403310518,1.58067050923
19521000000,0.453728168813,2.53746041707,1.57606228697
19541000000,0.455690562518,2.53457361532,1.5714542699
19561000000,0.457639347752,2.53168745884,1.56684669031
19581000000,0.459574439166,2.52878227949,1.56223923861
19601000000,0.4614958806,2.52587428801,1.55763222673
19621000000,0.463403560788,2.52295498825,1.55302550015
19641000000,0.465297367997,2.52002272693,1.54841889905
19661000000,0.467178063365,2.5170840878,1.54381274223
19681000000,0.469044124441,2.51413409697,1.53920670991
19701000000,0.470896307039,2.51117695513,1.53460112451
19721000000,0.472734459659,2.50820949579,1.52999566201
19741000000,0.474558641977,2.50523442,1.5253906491
19761000000,0.476368726047,2.50224975493,1.52078575772
19781000000,0.478164751182,2.49925723176,1.5161813185
19801000000,0.479946624445,2.49625585313,1.51157708318
19821000000,0.481713640091,2.49324591267,1.5069730515
19841000000,0.483467121082,2.49022762991,1.50236930502
19861000000,0.485206380664,2.48720143105,1.49776601532
19881000000,0.486931335436,2.48416673746,1.49316284388
19901000000,0.488641987755,2.48112414106,1.48856013125
19921000000,0.490338279431,2.47807342758,1.48395770847
19941000000,0.492102841959,2.47486205038,1.47912486413
19961000000,0.493686484098,2.47194918939,1.47475354629
19981000000,0.495339402896,2.46887465213,1.47015183563
20001000000,0.496977797236,2.46579127034,1.46555047078
20021000000,0.498601767768,2.46270125786,1.46094931721
20041000000,0.500210504182,2.45960371637,1.45634863189
20061000000,0.501805306726,2.45649850903,1.45174805616
20081000000,0.503385477879,2.45338582769,1.44714795075
20101000000,0.504950979913,2.45026570814,1.44254813715
20121000000,0.506501779474,2.44713821951,1.43794843119
20141000000,0.508037844902,2.44400344206,1.43334919968
20161000000,0.50955914392,2.4408614432,1.42875007399
20181000000,0.511065643159,2.43771228343,1.42415142513
20201000000,0.512556646092,2.43455614708,1.41955288113
20221000000,0.514033452918,2.43139290161,1.41495462627
20241000000,0.515495365131,2.42822271263,1.41035685109
20261000000,0.516941683405,2.42504573549,1.40575937067
20281000000,0.518373711078,2.42186186779,1.40116198814
20301000000,0.519790741902,2.41867125569,1.39656509073
20322000000,0.521192722093,2.41547398564,1.39196829016
20341000000,0.522579552203,2.41227009029,1.38737198547
20361000000,0.523957507815,2.40905943734,1.38277261633
20381000000,0.525329321031,2.40584191899,1.37816974635
20401000000,0.526695317021,2.40261756983,1.37356212291
20419000000,0.528055466721,2.3993864462,1.36894994574
20441000000,0.529409748475,2.39614864474,1.36433281486
20461000000,0.530758096513,2.39290405257,1.35971174158
20481000000,0.532100519514,2.38965290922,1.35508528407
20501000000,0.533436944346,2.38639507748,1.35045476245
20521000000,0.534767373591,2.38313075786,1.34581879444
20541000000,0.536091733155,2.37985986576,1.34117865288
20560000000,0.537409979182,2.37658254621,1.33653305324
20581000000,0.53872197763,2.37329870501,1.33188320845
20601000000,0.540024782133,2.37000875243,1.32722935597
20621000000,0.541312869861,2.36671277082,1.32257502219
20641000000,0.542585430498,2.36341116446,1.31792069997
20661000000,0.543841613282,2.36010356786,1.31326632968
20681000000,0.54508269646,2.35678967661,1.30861623449
20701000000,0.546308403866,2.35347125166,1.30396190412
20721000000,0.547518386504,2.35014715862,1.29930749004
20741000000,0.548712111111,2.34681821957,1.2946531277
20761000000,0.549890818243,2.3434838863,1.28999874796
20781000000,0.551053708616,2.34014406724,1.2853444173
20801000000,0.552200896181,2.33679930254,1.28069005101
20821000000,0.553332226483,2.33344922532,1.27603573086
20841000000,0.553415161988,2.33309678961,1.27568722282
20861000000,0.553419895062,2.33309719001,1.2756830713
20881000000,0.552585177101,2.31808804851,1.26561831062
20901000000,0.551653294363,2.30197446372,1.26046178175
20921000000,0.55035777902,2.28518803065,1.25147585786
20941000000,0.548910756242,2.2684364382,1.24244120801
20961000000,0.547312778295,2.25167603739,1.2334553579
20981000000,0.545547258265,2.23488550113,1.2244381233
21001000000,0.543647162471,2.2181576351,1.21545238021
21021000000,0.541556405359,2.20134390503,1.20637484261
21041000000,0.53935417209,2.18465400754,1.19738920834
21061000000,0.536979715316,2.16793088758,1.18834571147
21081000000,0.534340205751,2.15042569187,1.1788817819
21101000000,0.53181362228,2.13463473111,1.17034653713
21121000000,0.529009770443,2.11803712039,1.16136139764
21141000000,0.526034638565,2.1014146941,1.15232228258
21161000000,0.522910077683,2.08482182441,1.14328542446
21181000000,0.51965183407,2.06831013571,1.1343003529
21201000000,0.516228874291,2.05177832367,1.12526634786
21221000000,0.512679827064,2.03532574712,1.11628143562
21241000000,0.508959944813,2.01886096767,1.10724921786
21261000000,0.505114544324,2.0024758809,1.09826453375
21281000000,0.501100587424,1.98608636383,1.08923479483
21301000000,0.496960146094,1.96977407681,1.08025034491
21321000000,0.492654895431,1.95346731882,1.07122302599
21341000000,0.48822083529,1.93723309718,1.06223883235
21361000000,0.4836275951,1.92101698099,1.05321391923
21381000000,0.478901464,1.90486605416,1.04422999807
21401000000,0.474014922407,1.88874784299,1.03520734667
21421000000,0.468744025243,1.87187731093,1.02575355099
21441000000,0.463826564096,1.85666418999,1.017202058
21461000000,0.458520411034,1.84069590966,1.00821896699
21481000000,0.453068753913,1.82477183062,0.99921803762
21501000000,0.447473418707,1.80889730431,0.990201746219
21521000000,0.4417320612,1.79308271176,0.98121896293
21541000000,0.435852621269,1.77731385373,0.97220539224
21561000000,0.429833255413,1.76160175208,0.963222939284
21581000000,0.423671186496,1.74594291798,0.954211030437
21601000000,0.417363091698,1.73034600227,0.945214371232
21621000000,0.410921155783,1.71480319339,0.936232497564
21641000000,0.404339399203,1.69931932316,0.92725082947
21661000000,0.397617690807,1.68389477557,0.918238187797
21681000000,0.390757479327,1.66853199922,0.909232295153
21701000000,0.383759530996,1.6532324803,0.900251266958
21721000000,0.37662370051,1.63799654393,0.891247668561
21741000000,0.369351133545,1.6228261251,0.882267088792
21761000000,0.361941958142,1.60772188018,0.87326577905
21781000000,0.354397146414,1.5926854732,0.864285666542
21801000000,0.345175429955,1.5747236144,0.853500951709
21821000000,0.337724336576,1.56058806267,0.844967924389
21841000000,0.329755420916,1.54577364588,0.835969197466
21861000000,0.321653640083,1.53103080047,0.826990120683
21883000000,0.313419533019,1.51636199879,0.817988969913
21901000000,0.305053003504,1.50176761425,0.808997221531
21921000000,0.296555645699,1.48724979526,0.800018936326
21941000000,0.287927534352,1.47280907432,0.791029379978
21961000000,0.279164639975,1.45845232336,0.782051652724
21981000000,0.270277832525,1.4441699925,0.773068927222
22001000000,0.261257620057,1.42997387962,0.764091754686
22021000000,0.252114889935,1.41585444396,0.755102826947
22041000000,0.242845358845,1.40181821608,0.746126251745
22061000000,0.233449609755,1.3878661679,0.737125440979
22081000000,0.223928393202,1.37399941943,0.728141252628
22101000000,0.214282829227,1.36021939798,0.719165590284
22121000000,0.204513248897,1.34652681718,0.710182503634
22141000000,0.194620907718,1.33292318139,0.701207471564
22161000000,0.184606159748,1.31940920624,0.692225509041
22181000000,0.174470263585,1.30598635323,0.683251124314
22201000000,0.164213713868,1.29265543356,0.674273627176
22221000000,0.153837564393,1.27941770002,0.665299906609
22241000000,0.143342326134,1.26627396098,0.656320009793
22261000000,0.132729300958,1.25322562474,0.64734697001
22281000000,0.121998898131,1.24027339935,0.638368243917
22301000000,0.111147815753,1.22742441363,0.629390213374
22321000000,0.100185986105,1.21466805529,0.620418220855
22341000000,0.0891095960044,1.20201105567,0.611441083339
22361000000,0.0779196616444,1.18945451083,0.602469816117
22381000000,0.0666169080637,1.17699930713,0.59349637139
22401000000,0.0552025173054,1.16464662777,0.58452584126
22421000000,0.0436770087087,1.15239719971,0.575550854337
22441000000,0.0320415998074,1.14025219916,0.566576589551
22461000000,0.020293529586,1.128218973,0.557607199433
22481000000,0.0084412832196,1.11628581714,0.548633889623
22501000000,-0.00352171506758,1.10446636254,0.539665273751
22521000000,-0.0155869248597,1.09274891031,0.530695084463
22541000000,-0.0277572103813,1.081140699,0.521727252882
22561000000,-0.0400353807808,1.0696489695,0.512756074418
22581000000,-0.05241285603,1.05826201062,0.503789043993
22601000000,-0.0648962193881,1.04699337748,0.49481900174
22620000000,-0.0774768769622,1.03583134379,0.485852801648
22641000000,-0.0901577906975,1.02478302424,0.47686787386
22661000000,-0.102937829787,1.01384936325,0.467899795396
22681000000,-0.115815569408,1.00303143459,0.458934843843
22701000000,-0.128790429474,0.992329875076,0.449969029715
22721000000,-0.141861007436,0.981745715574,0.441004931604
22741000000,-0.155026745327,0.971279570668,0.43203882673
22761000000,-0.168285918649,0.96093258676,0.423075595563
22781000000,-0.181638103054,0.95070529989,0.414110547682
22801000000,-0.195084861414,0.940605410677,0.405145447684
22822000000,-0.208618833473,0.93062040514,0.396183541551
22841000000,-0.222242338431,0.920757630446,0.387214093071
22861000000,-0.235954043026,0.911017969151,0.378253086369
22881000000,-0.249753116054,0.901402091764,0.369291670683
22901000000,-0.263638098986,0.89191090288,0.360331575658
22921000000,-0.277608398262,0.882544964924,0.351370364296
22941000000,-0.291662505589,0.87330517374,0.342409808889
22961000000,-0.305801445389,0.864199304341,0.333451108975
22981000000,-0.320019621346,0.855214051546,0.324492278499
23001000000,-0.334317985383,0.846357198648,0.315534513847
23021000000,-0.348695803247,0.837629311166,0.30657620315
23042000000,-0.363151457382,0.829031233226,0.297619391926
23061000000,-0.377684385402,0.820563467289,0.288662257321
23081000000,-0.392294943417,0.812233911527,0.279706118775
23101000000,-0.406979786611,0.804036193722,0.270750758194
23121000000,-0.421735895176,0.795963848996,0.261795920935
23141000000,-0.436564179081,0.788024574577,0.252841537785
23161000000,-0.451463684218,0.780218940638,0.243887312534
23181000000,-0.466432662124,0.772547707997,0.234933920132
23201000000,-0.481472334496,0.765018465889,0.225980923725
23221000000,-0.49657715403,0.757617726213,0.217028527253
23241000000,-0.511748220023,0.750353097161,0.208076716485
23261000000,-0.526984009469,0.74322521767,0.199125332907
23281000000,-0.542283855366,0.736234544687,0.190174539214
23301000000,-0.557647098514,0.729389010622,0.181224178967
23321000000,-0.573070272628,0.722674619815,0.172274365298
23341000000,-0.588553166388,0.716099194107,0.163325027051
23361000000,-0.604094871776,0.709663194882,0.1543762938
23381000000,-0.62047654972,0.70305993191,0.14498160364
23401000000,-0.63613477467,0.696910410999,0.136033677397
23421000000,-0.651848540921,0.690902730687,0.127086521978
23441000000,-0.667614785061,0.685036648473,0.118139803817
23461000000,-0.683434277302,0.679319755962,0.109193733677
23481000000,-0.699303787738,0.673737978866,0.100248057767
23501000000,-0.715223171696,0.668299001418,0.0913030285023
23521000000,-0.731190845761,0.66300328772,0.082358430389
23541000000,-0.747206357146,0.657858542013,0.0734144398057
23561000000,-0.763267578012,0.65285789573,0.0644705037648
23581000000,-0.779372805876,0.647994413905,0.0555275053769
23601000000,-0.795521972856,0.643283090081,0.0465805754983
23621000000,-0.811712418454,0.638709704817,0.0376386522965
23641000000,-0.827943526491,0.634281907175,0.0286973415735
23661000000,-0.844213983092,0.630000052138,0.0197565186392
23681000000,-0.86052268418,0.625864476621,0.0108163628855
23701000000,-0.876867897591,0.621875512515,0.00187675825419
23721000000,-0.893248517495,0.618033470114,-0.00706242336699
23741000000,-0.909663217785,0.614338651501,-0.0160009911603
23761000000,-0.926110689168,0.610791347105,-0.0249390723678
23781000000,-0.942589600646,0.607391835186,-0.0338764698333
23801000000,-0.959098411613,0.604147699897,-0.0428134297374
23821000000,-0.975636214707,0.601044569381,-0.0517497277433
23841000000,-0.992201665735,0.598090027352,-0.0606854571941
23861000000,-1.00879430347,0.5952041577,-0.0696558101218
23881000000,-1.02541244244,0.592438986274,-0.0786407046851
23901000000,-1.04205424025,0.589820834729,-0.0876254613677
23921000000,-1.05871852945,0.587352687818,-0.0966211293637
23941000000,-1.07540387726,0.585034720499,-0.10560609503
23961000000,-1.09210817049,0.582874470985,-0.114615390467
23981000000,-1.10883165924,0.580857403312,-0.123600561478
24001000000,-1.12557212884,0.578991046805,-0.13260883943
24021000000,-1.14232759497,0.57728291837,-0.141617194563
