%time,field.x,field.y,field.theta
3361000000,0.649085586933,-0.792386537756,-0.864225347859
3381000000,0.654110681112,-0.801873175998,-0.869624635885
3401000000,0.65908413454,-0.811387061603,-0.875024370616
3421000000,0.664005849515,-0.820927977587,-0.880424173727
3441000000,0.668875648548,-0.83049560932,-0.885824299058
3461000000,0.673693416068,-0.840089714618,-0.891224371217
3481000000,0.678458975534,-0.849709973942,-0.896624893252
3501000000,0.683172208901,-0.85935613739,-0.902025367075
3521000000,0.68783295559,-0.869027899298,-0.907426291879
3541000000,0.692441082289,-0.878724985522,-0.912827173353
3561000000,0.696996455008,-0.888447118676,-0.918228506952
3581000000,0.701498930945,-0.898194007222,-0.923629802112
3601000000,0.705948377424,-0.907965370068,-0.929031307295
3621000000,0.7103446632,-0.917760925438,-0.934433265284
3641000000,0.714687643487,-0.927580370365,-0.939835193067
3661000000,0.718977205037,-0.937423441977,-0.94523757471
3681000000,0.723213199193,-0.947289826036,-0.950640050432
3701000000,0.723747547995,-0.94835784675,-0.951002610112
3721000000,0.72377117158,-0.948398671189,-0.951207077433
3741000000,0.717611102039,-0.947099194964,-0.961234643955
3761000000,0.711037401954,-0.945829626709,-0.973355717208
3782000000,0.704286913185,-0.944215620594,-0.979901895931
3801000000,0.697498126015,-0.942443272625,-0.990695080879
3821000000,0.690707460481,-0.940562506582,-1.00150564898
3841000000,0.683962639611,-0.938641124122,-1.01229789913
3861000000,0.677201037074,-0.93658827147,-1.02312560387
3881000000,0.670498804529,-0.934521665551,-1.03391690167
3901000000,0.663790362193,-0.932330980646,-1.04474017915
3921000000,0.657136191434,-0.930118729936,-1.05553050736
3941000000,0.650479583912,-0.927784296194,-1.06634912591
3961000000,0.643876597545,-0.92542751458,-1.07713847044
3981000000,0.637274614661,-0.922950070879,-1.08795288569
4001000000,0.630701738398,-0.920402229933,-1.0987637456
4021000000,0.624181592472,-0.91783074391,-1.10955158197
4041000000,0.617678906179,-0.915164843436,-1.12034905307
4061000000,0.611219951718,-0.912450769297,-1.13113586801
4081000000,0.60477013044,-0.909619865587,-1.14194197107
4101000000,0.598370534692,-0.906766917557,-1.15272772423
4119000000,0.598351492627,-0.906723716775,-1.15275827478
4141000000,0.585639757094,-0.90077112121,-1.17434033145
4161000000,0.579338795596,-0.897710598506,-1.18512447733
4181000000,0.573066327765,-0.894567412553,-1.19591322949
4194000000,0.573066327765,-0.894567412553,-1.19591322949
4221000000,0.566826439149,-0.891349404963,-1.20670414093
4241000000,0.554472784213,-0.884752303493,-1.22826866368
4261000000,0.553907518631,-0.884319742262,-1.22904974092
4281000000,0.548297789416,-0.881164209466,-1.24348336803
4302000000,0.542220617699,-0.877697156924,-1.25425940814
4321000000,0.536231520296,-0.874339864473,-1.26098517776
4341000000,0.530224309854,-0.870743399539,-1.27176486368
4361000000,0.524262457596,-0.867100610899,-1.2825292467
4381000000,0.518335422655,-0.863374408058,-1.293307769
4401000000,0.512447076458,-0.859574552697,-1.30408617272
4421000000,0.506606057025,-0.855719587138,-1.31486351481
4441000000,0.500805823165,-0.851793920492,-1.32564049769
4461000000,0.495048052146,-0.847813567901,-1.33641664462
4481000000,0.489333187698,-0.84376612767,-1.3471921143
4505000000,0.489332799269,-0.84376439962,-1.34719207496
4521000000,0.478042405854,-0.835491818548,-1.36874130402
4541000000,0.472467171732,-0.831263329569,-1.37951498096
4561000000,0.466935974847,-0.826976096319,-1.39028808769
4581000000,0.46145457327,-0.82262692723,-1.40106048688
4601000000,0.456021351067,-0.81821999051,-1.41183235855
4621000000,0.450633721214,-0.813753737152,-1.42260366121
4641000000,0.445295322419,-0.809229520953,-1.43337556161
4661000000,0.44000680806,-0.804648210308,-1.44414554883
4681000000,0.434771490727,-0.800009073592,-1.45491485166
4701000000,0.429584401244,-0.795313908455,-1.46568357244
4721000000,0.424448907566,-0.790562331922,-1.47645154938
4741000000,0.419368498987,-0.785755268473,-1.48721898956
4761000000,0.414338057089,-0.780893278292,-1.49798567859
4781000000,0.409361031452,-0.775977020985,-1.50875171657
4801000000,0.404437998273,-0.771007107041,-1.51951722142
4821000000,0.399569516943,-0.765983863259,-1.53028195581
4841000000,0.394756165818,-0.760908139955,-1.54104615775
4861000000,0.389998498714,-0.755780368973,-1.551809643
4881000000,0.385297071621,-0.750601246638,-1.5625725333
4902000000,0.380652430978,-0.745371285994,-1.57333463711
4921000000,0.376065117379,-0.740091222311,-1.58409620765
4941000000,0.37606511811,-0.740091176075,-1.58409607492
4961000000,0.367067071483,-0.729383142524,-1.60561731245
4981000000,0.362655329624,-0.72395529996,-1.61637666835
5001000000,0.358302602435,-0.718480910578,-1.62713557737
5021000000,0.354009730694,-0.712960556609,-1.63789367142
5041000000,0.349777342648,-0.707392870401,-1.64865123999
5061000000,0.345605872494,-0.701779495548,-1.65940798874
5081000000,0.345605872814,-0.701779492046,-1.65940791305
5101000000,0.337452905043,-0.690418822757,-1.68091969327
5121000000,0.337145786254,-0.689792048439,-1.68168584445
5141000000,0.333485369008,-0.684685752922,-1.69168017174
5161000000,0.329591268945,-0.6787084159,-1.70680208535
5181000000,0.325733604788,-0.672877294826,-1.71755553208
5205000000,0.325703571761,-0.67308312702,-1.71342183258
5221000000,0.318175228423,-0.661295767517,-1.73492689423
5241000000,0.314507874167,-0.655340478628,-1.74567823178
5261000000,0.310905374015,-0.649346589473,-1.75642905106
5281000000,0.307369551912,-0.643307664387,-1.76717901579
5301000000,0.303899276254,-0.637232647913,-1.77792829028
5322000000,0.300497149541,-0.631125075382,-1.78867705133
5341000000,0.297161993474,-0.624979402325,-1.79942504139
5361000000,0.29389075212,-0.618798678317,-1.81017244141
5381000000,0.290687428703,-0.612580673406,-1.82091897004
5402000000,0.287554094609,-0.606330955263,-1.83166499325
5421000000,0.287331749661,-0.605663243718,-1.83243821818
5441000000,0.287325892456,-0.605663002791,-1.83244589604
5461000000,0.280488448215,-0.610929467152,-1.84959358853
5481000000,0.272917319998,-0.616779602704,-1.85682571868
5501000000,0.265178497379,-0.622821061821,-1.87010597754
5521000000,0.257356223594,-0.628768633873,-1.88337090563
5541000000,0.249458303023,-0.634601200124,-1.89665132085
5561000000,0.241457930087,-0.640398070706,-1.90999535035
5581000000,0.233380984648,-0.646083870919,-1.92333816285
5601000000,0.22524834234,-0.651592851293,-1.93661872252
5621000000,0.217034910058,-0.657026288521,-1.94992941854
5641000000,0.20876215264,-0.662317904146,-1.9632101508
5661000000,0.200419215631,-0.667498571465,-1.97649098263
5681000000,0.191967821473,-0.672655822326,-1.98985769837
5704000000,0.183482879369,-0.67760912927,-2.00313875745
5721000000,0.174898473721,-0.682531170996,-2.01649821351
5741000000,0.166275078838,-0.687282765346,-2.02980500411
5761000000,0.157601074238,-0.69189391333,-2.04308650285
5782000000,0.148853910482,-0.696411423387,-2.05639300079
5801000000,0.140058880093,-0.700789105886,-2.06967485551
5821000000,0.131186360529,-0.705083297325,-2.08300464832
5841000000,0.131179357071,-0.705095663361,-2.08302755224
5861000000,0.113293673932,-0.713265086249,-2.10961452163
5881000000,0.104270432084,-0.717174128635,-2.12291868958
5901000000,0.0951955897135,-0.720951814461,-2.13620161212
5921000000,0.0860681003089,-0.724621660364,-2.149524646
5941000000,0.0768991096562,-0.728158452024,-2.16280808284
5961000000,0.0676785538211,-0.731579230472,-2.17612933895
5981000000,0.0584173891562,-0.734869793934,-2.18941331877
6002000000,0.0491095316161,-0.738040584776,-2.20273374732
6021000000,0.0397607740515,-0.741085208481,-2.21605185903
6041000000,0.0303737062248,-0.744002034735,-2.22933673482
6061000000,0.0209472817484,-0.746794130835,-2.24263779518
6081000000,0.011484627139,-0.749459141066,-2.25592332029
6101000000,0.00198560994222,-0.751998792596,-2.26923918492
6121000000,-0.00754593157906,-0.75441003316,-2.28252540048
6141000000,-0.017110080678,-0.756694509574,-2.29583966662
6161000000,-0.0171103318941,-0.756694791503,-2.29585264503
6181000000,-0.0363263824926,-0.760878035913,-2.32243931951
6201000000,-0.0459755239115,-0.762776776251,-2.33573885989
6221000000,-0.0556496037461,-0.764546251549,-2.34902697922
6241000000,-0.0653511253465,-0.766182762222,-2.3623374087
6262000000,-0.0750703820879,-0.767693191267,-2.3756452599
6281000000,-0.0848094343601,-0.769073466431,-2.38893464183
6301000000,-0.0945667146827,-0.770323476052,-2.40223341214
6321000000,-0.104344083858,-0.771438988025,-2.41553209201
6341000000,-0.114132557089,-0.772427707116,-2.42882282729
6361000000,-0.123934017631,-0.773285484436,-2.44212883193
6381000000,-0.133750211085,-0.774008056248,-2.45542049082
6401000000,-0.14357243998,-0.774603459902,-2.46872615242
6421000000,-0.153405814033,-0.775063305921,-2.48201879698
6441000000,-0.163241825621,-0.775395839536,-2.49532396677
6461000000,-0.173082122874,-0.775596824824,-2.5086289177
6481000000,-0.182924966143,-0.775666210239,-2.52192311446
6501000000,-0.192768565273,-0.775603934484,-2.53522339254
6521000000,-0.202611212585,-0.77541001883,-2.54851866036
6541000000,-0.212451077211,-0.775084424404,-2.56182511001
6561000000,-0.222286524971,-0.774627265763,-2.57512148343
6581000000,-0.232115643524,-0.774038500676,-2.58842878082
6601000000,-0.242425445226,-0.77328073134,-2.60238952531
6621000000,-0.251750853794,-0.772462838918,-2.6150347179
6641000000,-0.261551257398,-0.771479516146,-2.6283335706
6661000000,-0.27133792893,-0.770365627916,-2.64164279395
6681000000,-0.281109792709,-0.769120934933,-2.6549514734
6701000000,-0.290864964172,-0.767745557962,-2.66825198347
6721000000,-0.3006016854,-0.766239709598,-2.68155678113
6741000000,-0.310318236988,-0.76460364396,-2.69485854515
6761000000,-0.320015199626,-0.762832774707,-2.70816707286
6781000000,-0.329686204748,-0.760937099231,-2.72147012689
6801000000,-0.339331822579,-0.75891207263,-2.73477792579
6823000000,-0.348952506801,-0.756753110047,-2.74808227509
6841000000,-0.358542221792,-0.754470429339,-2.76138973263
6861000000,-0.368101430979,-0.752059497413,-2.77469589359
6881000000,-0.377628417238,-0.749520714793,-2.78800226966
6894000000,-0.377628417238,-0.749520714793,-2.78800226966
6921000000,-0.396578886538,-0.744061325489,-2.81461689518
6941000000,-0.405998994111,-0.741141650498,-2.82792535098
6961000000,-0.415381769499,-0.738090858443,-2.84123431676
6981000000,-0.424722219637,-0.734919712933,-2.8545440145
7001000000,-0.434020285772,-0.731623621748,-2.86785460868
7021000000,-0.443275790446,-0.728197974053,-2.88116574081
7041000000,-0.452484163299,-0.724653725197,-2.89447779457
7061000000,-0.461645223101,-0.720986302665,-2.90779049244
7081000000,-0.470757294163,-0.717196329025,-2.92110401768
7101000000,-0.479818752317,-0.713284459844,-2.93441812009
7121000000,-0.488827992464,-0.709251374038,-2.94773314429
7141000000,-0.497783397359,-0.705097767344,-2.96104876173
7161000000,-0.506684329412,-0.700819057279,-2.97436513967
7181000000,-0.515527231024,-0.696426580575,-2.98768245682
7201000000,-0.524311509855,-0.691915800839,-3.00100046393
7221000000,-0.533035555221,-0.687287495833,-3.01431932474
7241000000,-0.541697066505,-0.682593160415,-3.02762319531
7261000000,-0.550294631758,-0.677833142094,-3.04091006922
7281000000,-0.558827042745,-0.672963392211,-3.05421900594
7301000000,-0.567293932702,-0.667980311558,-3.0675206771
7321000000,-0.575693681853,-0.662879380477,-3.08080462097
7341000000,-0.584023986368,-0.657672187798,-3.09408830796
7361000000,-0.592283906227,-0.652354332199,-3.10740652664
7381000000,-0.600471926072,-0.646921383736,-3.12068967419
7401000000,-0.608586407862,-0.64138501807,-3.13400745674
7421000000,-0.616625956377,-0.635740873544,3.1358951676
7441000000,-0.624589283888,-0.629989945497,3.1225780195
7461000000,-0.63247486876,-0.624133253869,3.10929577269
7481000000,-0.640281394596,-0.618171834901,3.09597911112
7501000000,-0.648007434945,-0.61210674675,3.08269725488
7521000000,-0.655651632297,-0.605939063902,3.06938120864
7541000000,-0.663212656487,-0.599669877236,3.05609969883
7561000000,-0.663212606845,-0.599669881609,3.05606565553
7581000000,-0.678079758568,-0.586831458875,3.02950309526
7601000000,-0.685383203422,-0.580264501307,3.01618837892
7621000000,-0.692598226698,-0.573600583062,3.00287425605
7641000000,-0.699722811243,-0.566835570318,2.98959343042
7661000000,-0.706757138324,-0.559981278831,2.97629630713
7681000000,-0.713699210735,-0.553033626294,2.96301566046
7701000000,-0.720547845162,-0.545993827456,2.94970285441
7721000000,-0.727300817566,-0.538857857705,2.93639070513
7741000000,-0.733958839367,-0.5316375264,2.92311025418
7759000000,-0.74051982273,-0.524328836915,2.90981459499
7781000000,-0.746982533681,-0.516933092106,2.89653423261
7801000000,-0.753345866682,-0.509451588639,2.88322354653
7821000000,-0.759608677008,-0.501885652669,2.86994321901
7841000000,-0.76607537016,-0.493855572587,2.85597102405
7861000000,-0.771828273633,-0.486500965136,2.84332258149
7881000000,-0.777782724327,-0.478689136682,2.83004205866
7901000000,-0.783632507106,-0.47079896978,2.81676166564
7921000000,-0.789373536536,-0.462826524125,2.80345474275
7941000000,-0.795010526028,-0.454782551976,2.7901477568
7961000000,-0.800539545434,-0.446663830993,2.77686719381
7981000000,-0.805959618181,-0.438471786551,2.7635602438
8001000000,-0.811269829688,-0.430207844888,2.75027951621
8021000000,-0.811928628013,-0.429454578779,2.74935639368
8041000000,-0.81192869711,-0.429448389389,2.74934930611
8061000000,-0.803067427884,-0.4285656844,2.73344943915
8081000000,-0.792761802127,-0.42795150041,2.72285696801
8101000000,-0.782758925676,-0.427302971465,2.71727858749
8121000000,-0.772441415865,-0.426906316275,2.70668046737
8141000000,-0.762056097757,-0.426645071134,2.69611616153
8161000000,-0.751731759404,-0.42646441602,2.68551829024
8181000000,-0.741321610704,-0.426436597916,2.67491583344
8201000000,-0.730938556924,-0.426507138494,2.66431439993
8221000000,-0.72061605034,-0.426657820043,2.65371689501
8241000000,-0.710271074601,-0.42693214018,2.64311765546
8261000000,-0.699955252089,-0.427302881026,2.63252044629
8282000000,-0.689598225961,-0.427815625095,2.62191975638
8301000000,-0.67929390639,-0.428406482223,2.61132287283
8321000000,-0.668950097218,-0.429135240677,2.600722625
8341000000,-0.65866195934,-0.429945908567,2.59012609111
8361000000,-0.648338582415,-0.430894450914,2.57952645656
8381000000,-0.638030571282,-0.431956674717,2.56892719294
8401000000,-0.627775588667,-0.433096480855,2.55833123994
8421000000,-0.617512989404,-0.434359509225,2.54773399505
8441000000,-0.607288412281,-0.435721770901,2.53713845679
8461000000,-0.597039765078,-0.437220889277,2.52654037373
8481000000,-0.586844892349,-0.438796988217,2.51594528729
8500000000,-0.586809063782,-0.438822926084,2.51592711087
8521000000,-0.566448026888,-0.442321150115,2.49473540202
8541000000,-0.556310555486,-0.444222740175,2.48414104572
8561000000,-0.546187918622,-0.446243527491,2.47354590788
8581000000,-0.536097229115,-0.448364549857,2.46295206335
8601000000,-0.526013715935,-0.45060009371,2.45235656564
8621000000,-0.515968359945,-0.452931874116,2.44176326109
8641000000,-0.505940606062,-0.455377587312,2.43116847329
8661000000,-0.505940606062,-0.455377587312,2.43116847329
8681000000,-0.485978523189,-0.460579065873,2.40998160174
8702000000,-0.476043374616,-0.463336634092,2.39938945244
8715000000,-0.476040078857,-0.463339662474,2.39938789446
8741000000,-0.456259908317,-0.469173464152,2.37820309415
8761000000,-0.456259908317,-0.469173464152,2.37820309415
8781000000,-0.436612127791,-0.475425226811,2.3570209878
8801000000,-0.426838589387,-0.47870898876,2.34642914308
8821000000,-0.417102241531,-0.482095338055,2.33583891857
8841000000,-0.407405618758,-0.485589460175,2.32524790997
8861000000,-0.397744359092,-0.489182401351,2.31465836607
8881000000,-0.388121779629,-0.492878595111,2.30405378572
8901000000,-0.3785396686,-0.496676846055,2.29346416182
8921000000,-0.368999229506,-0.500576563901,2.28287571088
8941000000,-0.359501013909,-0.504577901919,2.27228699495
8961000000,-0.350050245946,-0.508683102063,2.26169929292
8981000000,-0.340640228337,-0.512885660559,2.25111174286
9001000000,-0.331275924318,-0.517188092252,2.24052481923
9021000000,-0.321958259579,-0.521590063321,2.22993810479
9041000000,-0.312688384911,-0.526090943625,2.21935197896
9061000000,-0.303471152682,-0.530693324668,2.20876603049
9081000000,-0.294299889316,-0.535390593766,2.19818072783
9101000000,-0.285179433257,-0.540185340951,2.18759578868
9121000000,-0.28517948303,-0.540185270621,2.18759578828
9141000000,-0.267099413713,-0.550067399306,2.16642730627
9161000000,-0.2581377145,-0.555150961796,2.15583025116
9181000000,-0.249230997426,-0.560329617285,2.1452470952
9204000000,-0.240380284133,-0.565602730188,2.13466439284
9221000000,-0.231586458107,-0.570969877527,2.12408213505
9241000000,-0.222850561607,-0.576430369082,2.11350033901
9263000000,-0.214173593663,-0.581983558621,2.10291900004
9281000000,-0.205556496622,-0.587628874196,2.09233814909
9301000000,-0.19700029941,-0.593365572584,2.08175774947
9321000000,-0.188505924627,-0.599193072167,2.07117784615
9341000000,-0.180074354553,-0.605110663087,2.06059840603
9361000000,-0.171706526345,-0.611117693677,2.05001945307
9381000000,-0.16340336626,-0.617213511747,2.03944101532
9401000000,-0.155170218813,-0.623399595588,2.02886306763
9421000000,-0.146999221279,-0.629670818714,2.01828393177
9433000000,-0.146999211043,-0.62967084009,2.01826875796
9461000000,-0.13086500171,-0.642474557221,1.99711536857
9481000000,-0.122899148226,-0.649003513814,1.98653945802
9501000000,-0.115003482119,-0.655616904597,1.97596404871
9521000000,-0.107178925288,-0.662313886328,1.96538920147
9541000000,-0.0994262745361,-0.669093894837,1.95481484541
9561000000,-0.0917464566729,-0.675956027917,1.94424106517
9581000000,-0.0917464566729,-0.675956027917,1.94424106517
9601000000,-0.076613270835,-0.689925482948,1.92309508142
9621000000,-0.0691570451424,-0.697029399506,1.91252288633
9641000000,-0.0617816448196,-0.704214006004,1.90195128839
9661000000,-0.0544787466217,-0.711474915369,1.89138025331
9681000000,-0.0472536729319,-0.718813317582,1.88080971921
9701000000,-0.0401073316428,-0.726228070722,1.87023977648
9721000000,-0.0330404272645,-0.733718645026,1.85967037003
9742000000,-0.0260538153693,-0.741283990506,1.84910159599
9761000000,-0.0188028071618,-0.749307290941,1.83800599762
9781000000,-0.0123286034952,-0.756637049721,1.82796556458
9801000000,-0.00558809527472,-0.76442186178,1.81739860816
9821000000,0.00106963085051,-0.772277720409,1.8068321593
9841000000,0.00763851921756,-0.780205316986,1.79626606388
9861000000,0.0141225543051,-0.788202393042,1.78570072022
9881000000,0.0205257925824,-0.796266984232,1.77513358438
9901000000,0.0268427367456,-0.804399295885,1.76456943428
9921000000,0.0330726529409,-0.812598235068,1.75400382068
9941000000,0.039214908802,-0.820863215998,1.74344087558
9961000000,0.0452687714681,-0.829193058829,1.73287862598
9981000000,0.0512287550867,-0.837587774719,1.72231698914
10001000000,0.0571038486289,-0.846044719199,1.71175587622
10021000000,0.062883708455,-0.854564468685,1.70119542408
10041000000,0.0685773877843,-0.863144613573,1.69063554587
10061000000,0.0741793961377,-0.871784904964,1.68007628771
10081000000,0.0796890732672,-0.880483976062,1.66951780544
10101000000,0.0851058845016,-0.889241623943,1.65895979765
10121000000,0.0904291764507,-0.898056390611,1.64840258195
10141000000,0.0956583676876,-0.906927436899,1.63784589165
10161000000,0.100792867352,-0.915853675657,1.62728977859
10181000000,0.105832102574,-0.92483409444,1.61673435969
10201000000,0.110775512109,-0.933867693496,1.60617952138
10221000000,0.11562254432,-0.942953440076,1.59562544317
10241000000,0.120372659336,-0.952090317736,1.58507188821
10261000000,0.125025327818,-0.961277282788,1.57451910235
10281000000,0.129580031793,-0.970513312497,1.56396683878
10301000000,0.134036264552,-0.979797337663,1.55341535287
10321000000,0.138393529782,-0.989128349924,1.54286438815
10341000000,0.142651343917,-0.998505255065,1.53231420948
10361000000,0.146809232153,-1.00792703937,1.52176455046
10381000000,0.150866735141,-1.01739258531,1.51121568556
10402000000,0.154823400322,-1.02690086787,1.50066748224
10421000000,0.15867878696,-1.03645083064,1.49011979339
10441000000,0.162427590362,-1.04604098981,1.47957283628
10462000000,0.166079155537,-1.05567103217,1.46902646888
10481000000,0.16962819337,-1.06533946505,1.45848091384
10501000000,0.173074309934,-1.07504524714,1.44793587051
10521000000,0.176417157216,-1.08478698354,1.43739164718
10541000000,0.179672859462,-1.09456464326,1.42684004542
10561000000,0.182891805404,-1.10437807459,1.41625418064
10582000000,0.186034517369,-1.11422640132,1.40565707447
10601000000,0.189073847273,-1.12410698226,1.39505853017
10621000000,0.192152736794,-1.1345161987,1.38393017757
10641000000,0.19483189171,-1.14396000309,1.37385996332
10661000000,0.197553403207,-1.15393159398,1.36325752641
10681000000,0.200169438512,-1.16393017702,1.35265876168
10701000000,0.202679257768,-1.17395390366,1.34205612927
10722000000,0.205081927501,-1.18400452258,1.33145349801
10741000000,0.207377422015,-1.19407977769,1.32085464345
10761000000,0.209565558624,-1.20417823028,1.31025388872
10781000000,0.211646047454,-1.21429891571,1.29965501004
10801000000,0.213618722726,-1.22444045377,1.28905239012
10821000000,0.215483279613,-1.23460199893,1.27845351591
10840000000,0.215483279613,-1.23460199893,1.27845351591
10861000000,0.218887389987,-1.25497993568,1.25725212286
10881000000,0.220426566815,-1.26519403175,1.24664967946
10901000000,0.221856870351,-1.27542350916,1.23605090002
10921000000,0.22317822701,-1.28566696561,1.22544860475
10941000000,0.224390406079,-1.29592348347,1.21484991558
10961000000,0.225493363426,-1.30619166096,1.20424780782
10981000000,0.225493363426,-1.30619166096,1.20424780782
11002000000,0.227370954494,-1.32675885402,1.18304735632
11021000000,0.22814540883,-1.33705547807,1.17244728121
11041000000,0.228810160437,-1.34735929653,1.16184894241
11064000000,0.22936521135,-1.35766897604,1.1512474743
11081000000,0.229810406173,-1.36798357067,1.14064932538
11101000000,0.230145803813,-1.37830168312,1.1300481809
11121000000,0.230371256698,-1.38862239107,1.11945025014
11141000000,0.230486856268,-1.39894429227,1.10884946778
11161000000,0.230492481608,-1.40926644748,1.09825178337
11181000000,0.230388256477,-1.41958745264,1.08765140128
11201000000,0.230169706704,-1.4299041237,1.07705398686
11221000000,0.22984571107,-1.4402195905,1.0664540463
11241000000,0.229411824515,-1.45053063968,1.05585693937
11261000000,0.22941194863,-1.45053042077,1.05585442068
11282000000,0.228704450481,-1.46193656202,1.04448061454
11301000000,0.228691194031,-1.46197091806,1.04401802262
11321000000,0.233963063891,-1.4588586013,1.03322616245
11341000000,0.240063047855,-1.45494293304,1.02563669483
11361000000,0.246094930533,-1.45123806675,1.02110839086
11381000000,0.252257217957,-1.44741767077,1.01351406064
11401000000,0.25848643856,-1.44358039162,1.00595300117
11421000000,0.264705235825,-1.43985369354,0.998358386032
11441000000,0.271307701486,-1.4359241031,0.990386105479
11461000000,0.277318034113,-1.43241232553,0.983169441502
11481000000,0.283622562135,-1.42883025379,0.975574323381
11501000000,0.289972814896,-1.42526937753,0.967979263445
11521000000,0.296351807501,-1.42175553161,0.960384064758
11541000000,0.302737658334,-1.4183192876,0.952788556706
11562000000,0.309189178401,-1.41487752267,0.945193181509
11581000000,0.315627685842,-1.41153976308,0.937597351052
11601000000,0.322129399322,-1.40820089393,0.930001648823
11621000000,0.328619045896,-1.40496239966,0.922405476847
11641000000,0.335167078958,-1.40173004587,0.914809418258
11661000000,0.34170630279,-1.39859156362,0.907212888063
11681000000,0.348296327107,-1.39546954957,0.899616460419
11701000000,0.354883537538,-1.39243177801,0.89201955406
11721000000,0.361514008662,-1.38942014729,0.884422741586
11741000000,0.368160798283,-1.38646789563,0.876825731007
11761000000,0.37481894344,-1.38358407582,0.869228254595
11781000000,0.381502088532,-1.3807441767,0.861630686157
11801000000,0.388202251032,-1.37796109404,0.854032782955
11821000000,0.394930427652,-1.37522187582,0.846434955383
11841000000,0.401672974569,-1.37254178914,0.838836635813
11861000000,0.408440651742,-1.36990842543,0.831238380486
11881000000,0.415224000204,-1.36733196206,0.823639629252
11901000000,0.422030157327,-1.3648043176,0.816040933351
11921000000,0.428854674779,-1.36233003621,0.808442011016
11941000000,0.435696252944,-1.35991014771,0.800842588131
11961000000,0.442556434779,-1.35754273415,0.793242934956
11981000000,0.449437893843,-1.35522837315,0.785643336237
12001000000,0.456334831251,-1.35296563051,0.778043467795
12021000000,0.463248446499,-1.35075650329,0.770443101829
12041000000,0.470180857486,-1.34860212112,0.762842647613
12061000000,0.477128083247,-1.34649918618,0.755241779371
12082000000,0.484091859422,-1.34444920346,0.747642041389
12101000000,0.491071071827,-1.34245296763,0.740040686418
12121000000,0.491071200277,-1.34245285027,0.740040948227
12141000000,0.505077383935,-1.33862264377,0.724837745344
12161000000,0.512101545223,-1.33678737089,0.71723560096
12181000000,0.51914151714,-1.33500783174,0.709633348398
12201000000,0.526193598252,-1.33328043158,0.702030670531
12221000000,0.526193407456,-1.33328059303,0.702030926153
12241000000,0.540338564707,-1.32998983965,0.686824854721
12261000000,0.54743047339,-1.32842460793,0.67922155994
12281000000,0.54743047339,-1.32842460793,0.67922155994
12301000000,0.561648988779,-1.32546038642,0.664014053617
12321000000,0.562379276841,-1.32522372072,0.663495779959
12341000000,0.569133120293,-1.32398121992,0.655753324018
12361000000,0.576269600441,-1.32263616829,0.64815159829
12381000000,0.583396935006,-1.32136233104,0.641131949445
12401000000,0.590556207894,-1.32012989494,0.633526707336
12419000000,0.59053236248,-1.32014740858,0.633533490946
12441000000,0.60487609134,-1.31784298487,0.618322094997
12461000000,0.612067896627,-1.31676872244,0.610716193258
12481000000,0.619267164322,-1.31575034977,0.603109984574
12501000000,0.626468712285,-1.3147911278,0.595503230343
12521000000,0.633679728763,-1.31388585996,0.587896282428
12541000000,0.640895872914,-1.31303724,0.580288902267
12560000000,0.640898551586,-1.31303548411,0.580289135499
12582000000,0.65535178938,-1.31150656611,0.565073421343
12601000000,0.662588201749,-1.31082330351,0.557465308515
12621000000,0.669828484308,-1.31019653868,0.549856640258
12641000000,0.677437581174,-1.30959692725,0.54186552698
12661000000,0.684325494547,-1.30911115033,0.534638617711
12681000000,0.691578654713,-1.30865204973,0.527029098899
12701000000,0.698836291593,-1.30824780101,0.519419098172
12721000000,0.706098615336,-1.30789847593,0.511808982466
12741000000,0.706098588164,-1.30789849119,0.511809092239
12761000000,0.720629433844,-1.30737070574,0.496587568306
12781000000,0.721392798876,-1.30726236301,0.496064635376
12801000000,0.727876433013,-1.30719921152,0.488990601768
12821000000,0.735149127476,-1.30706996265,0.481608098414
12841000000,0.742419902671,-1.30700026501,0.473996139664
12861000000,0.749663044191,-1.30700073717,0.46639271401
12881000000,0.756936049639,-1.3070446898,0.45877993012
12901000000,0.764207826302,-1.30714226622,0.451166756154
12923000000,0.771486997625,-1.30729190915,0.443545170319
12941000000,0.778765766353,-1.30750002276,0.435931509492
12961000000,0.778765766353,-1.30750002276,0.435931509492
12981000000,0.79330644027,-1.30808928298,0.420702812574
13001000000,0.794076963998,-1.30804065751,0.420180389635
13021000000,0.800580653166,-1.30846170193,0.412801234895
13041000000,0.807842904433,-1.30889503252,0.405189569249
13061000000,0.815078966851,-1.30939323065,0.398065987664
13081000000,0.822334508585,-1.30993739558,0.390449852121
13101000000,0.829557148041,-1.31054894688,0.382840537516
13121000000,0.836804315176,-1.31120432886,0.375223643685
13141000000,0.844056617829,-1.31191156957,0.367606561067
13161000000,0.851302554658,-1.3126750582,0.359989089239
13181000000,0.858534096107,-1.31349751896,0.35237103799
13201000000,0.865762763458,-1.31437440088,0.344752688836
13221000000,0.872981734518,-1.31530798189,0.33713385137
13241000000,0.880198389014,-1.31629546831,0.329514802415
13261000000,0.887403096807,-1.31733999276,0.321895169029
13281000000,0.894602967254,-1.31843894023,0.314275316349
13301000000,0.901791713123,-1.31959418186,0.306654878082
13321000000,0.908973705567,-1.32080410859,0.299034213051
13341000000,0.916144795599,-1.32206981978,0.291412961399
13361000000,0.923308328316,-1.32339270542,0.283791488153
13381000000,0.930460683111,-1.32476844282,0.276169577409
13401000000,0.937602123991,-1.32619934489,0.268547088371
13421000000,0.944732798885,-1.32768516904,0.260924270337
13441000000,0.951852366742,-1.32922581464,0.253300949921
13461000000,0.958960804683,-1.33082110099,0.245677377997
13481000000,0.966056823236,-1.33247116381,0.238053216691
13501000000,0.973140439033,-1.33417580192,0.230428632111
13521000000,0.980211726392,-1.33593481203,0.222803868544
13541000000,0.987270047076,-1.33775071602,0.215178603688
13561000000,0.994313953188,-1.33961851882,0.207552729068
13581000000,1.00134424913,-1.34154296709,0.199926521671
13601000000,1.00835960166,-1.34351904009,0.192299784259
13621000000,1.01535971256,-1.3455491533,0.184672776073
13641000000,1.02234485413,-1.34763306415,0.177045178512
13662000000,1.02931415343,-1.34977074473,0.16941729653
13681000000,1.0362674344,-1.35196203635,0.161788823387
13701000000,1.04320444256,-1.35420679688,0.154160059221
13721000000,1.05012421982,-1.3565049895,0.146530703701
13741000000,1.05702685569,-1.35885641137,0.138901050873
13761000000,1.06391168988,-1.36126097075,0.131270949872
13782000000,1.07077814518,-1.36371855479,0.12364025921
13801000000,1.07762601237,-1.36622899962,0.11600912052
13821000000,1.08445504387,-1.36879214866,0.108377672317
13841000000,1.09126451998,-1.37140789464,0.100745633257
13861000000,1.09805421231,-1.37406627099,0.0931163358568
13881000000,1.10482302498,-1.37672746202,0.0855038078185
13901000000,1.11190675833,-1.37953137762,0.0775276209213
13921000000,1.11829780269,-1.38211901413,0.0703106204284
13941000000,1.12500351834,-1.38488828895,0.0627150196123
13963000000,1.13168765502,-1.38770836351,0.0551200325902
13983000000,1.13834981571,-1.3905793991,0.047524823649
14001000000,1.14499006291,-1.39350120987,0.039930119382
14021000000,1.15160715138,-1.39647366242,0.0323352121012
14041000000,1.15820147297,-1.39949655453,0.0247408022484
14061000000,1.16477195781,-1.40256972909,0.0171461826572
14081000000,1.17131883099,-1.40569299346,0.00955205317258
14101000000,1.17784138302,-1.40886617193,0.00195805835835
14121000000,1.18433911431,-1.4120890772,-0.00563615602578
14142000000,1.19081192007,-1.41536152081,-0.0132300669954
14161000000,1.19725923946,-1.41868578994,-0.0208240174604
14181000000,1.20368095254,-1.42205674226,-0.0284179216567
14201000000,1.21007642123,-1.42547664411,-0.0360116466232
14221000000,1.21644547452,-1.42894530678,-0.0436085495106
14241000000,1.22278758379,-1.43246252261,-0.0512020493529
14261000000,1.22910251662,-1.43602809334,-0.0587950930873
14281000000,1.23538983152,-1.4396418079,-0.0663880343187
14301000000,1.24164915155,-1.44330345485,-0.0739812248505
14321000000,1.24788015835,-1.44701282429,-0.0815741453161
14341000000,1.25408246999,-1.45076969913,-0.0891671476733
14361000000,1.25408246692,-1.45076969885,-0.0891667998575
14381000000,1.26095543093,-1.4548869068,-0.097273236482
14401000000,1.26098472973,-1.45489451996,-0.0975783772839
14421000000,1.26061572537,-1.45786823393,-0.104698172826
14441000000,1.26042557251,-1.46114014339,-0.11473681583
14461000000,1.25991475343,-1.46437919124,-0.119418486535
14481000000,1.25943641997,-1.46762156343,-0.127083699156
14501000000,1.2589042828,-1.47085658245,-0.134748668731
14521000000,1.25837563563,-1.47409163705,-0.142413728088
14541000000,1.25776864996,-1.47731477771,-0.150078388485
14561000000,1.25718983014,-1.48054157271,-0.157743317027
14581000000,1.25654126353,-1.48375665515,-0.165407846842
14601000000,1.25588135964,-1.48696903007,-0.173072316857
14621000000,1.25522758482,-1.49018202975,-0.180737069795
14641000000,1.25452890459,-1.49338641498,-0.188401434099
14661000000,1.25382530313,-1.49658949812,-0.196066093676
14681000000,1.25308446163,-1.49978484977,-0.203730703565
14701000000,1.25233118095,-1.50297734339,-0.211395298299
14721000000,1.25155311084,-1.50616429594,-0.219059852675
14741000000,1.25074266479,-1.50934375687,-0.226727096525
14761000000,1.24990991202,-1.51251775556,-0.234391262735
14781000000,1.24905776091,-1.51568687146,-0.242055745706
14801000000,1.24818099927,-1.51884968341,-0.249720197311
14821000000,1.24817758664,-1.51884881019,-0.249720172641
14841000000,1.24634853428,-1.52515429206,-0.2650515509
14861000000,1.24539825683,-1.52829710004,-0.272715994591
14881000000,1.24442283803,-1.53143265347,-0.280380268553
14901000000,1.24342380727,-1.53456120843,-0.288044717081
14921000000,1.24239928201,-1.53768199435,-0.29570883784
14941000000,1.24135171545,-1.54079554981,-0.303373302195
14961000000,1.24027946018,-1.54390117118,-0.311037450092
14981000000,1.23918296241,-1.54699878983,-0.318701617829
15001000000,1.23806303865,-1.55008846441,-0.326366133664
15021000000,1.2369188583,-1.55316974187,-0.33403051768
15041000000,1.23575099953,-1.55624260284,-0.341695093276
15062000000,1.2345592717,-1.55930677984,-0.349359702078
15081000000,1.23334314426,-1.56236186849,-0.357023857224
15101000000,1.23210388076,-1.56540812989,-0.364688543976
15121000000,1.23084052882,-1.56844499962,-0.372352788203
15141000000,1.22955388711,-1.5714725782,-0.380017406273
15161000000,1.22824384654,-1.57449060594,-0.387682228358
15181000000,1.22691024058,-1.57749882909,-0.395346959436
15201000000,1.22555337279,-1.58049716558,-0.403011909504
15221000000,1.22417303956,-1.583485309,-0.41067659888
15241000000,1.22276980856,-1.58646329755,-0.418341357087
15261000000,1.22134327163,-1.58943073159,-0.426006502667
15281000000,1.21989351944,-1.59238745861,-0.433671409179
15301000000,1.21842093882,-1.59533343089,-0.441336709616
15321000000,1.2169255889,-1.59826845684,-0.449001773462
15341000000,1.21540729265,-1.60119226086,-0.456667242922
15361000000,1.21386620178,-1.60410468622,-0.464332642113
15381000000,1.21386620178,-1.60410468622,-0.464332642113
15401000000,1.21071640113,-1.60989492423,-0.479663724255
15422000000,1.20910770007,-1.61277230857,-0.487329570081
15441000000,1.20747662095,-1.61563765981,-0.494995519684
15461000000,1.20582295643,-1.61849064319,-0.502661111139
15481000000,1.20414719933,-1.6213313046,-0.510326971304
15501000000,1.20244954257,-1.62415953468,-0.517993254142
15521000000,1.20072979904,-1.62697500728,-0.525659502177
15541000000,1.1989882308,-1.62977765036,-0.533326025368
15561000000,1.19722468716,-1.63256713849,-0.540992366921
15581000000,1.19543960159,-1.63534352987,-0.548659146954
15601000000,1.19363278833,-1.6381064513,-0.556325735359
15621000000,1.19180458728,-1.64085592162,-0.563992789028
15641000000,1.18995514365,-1.64359179426,-0.571667216872
15661000000,1.18808423097,-1.64631370467,-0.579334551459
15681000000,1.18619216473,-1.64902161443,-0.587001731899
15701000000,1.18427908606,-1.65171537621,-0.594669062778
15721000000,1.1823449038,-1.65439472056,-0.602336848496
15741000000,1.18038979008,-1.65705951357,-0.61000464257
15761000000,1.17841396967,-1.65970967683,-0.617672745403
15781000000,1.176417583,-1.66234507527,-0.625340720271
15801000000,1.1744005724,-1.66496541697,-0.633009154086
15821000000,1.17236297408,-1.66757048917,-0.64067745546
15841000000,1.17030522413,-1.6701604105,-0.648346253098
15861000000,1.16822734304,-1.6727349226,-0.656021815742
15881000000,1.1661293224,-1.67529378199,-0.663690961434
15901000000,1.16401133618,-1.677836878,-0.671360006918
15921000000,1.16187351672,-1.68036406859,-0.679029527598
15941000000,1.1597158155,-1.68287506375,-0.686698957529
15961000000,1.15753854081,-1.68536985046,-0.694368586182
15981000000,1.15534193321,-1.6878484032,-0.702038695541
16001000000,1.15312590621,-1.69031038596,-0.709708868399
16021000000,1.15089072428,-1.69275576993,-0.717379387399
16041000000,1.14863632904,-1.69518424723,-0.725049838956
16061000000,1.14636307843,-1.69759587499,-0.73272078121
16081000000,1.14407087986,-1.69999031071,-0.740391665335
16101000000,1.14175999247,-1.70236752629,-0.748062771949
16121000000,1.13943060589,-1.7047274353,-0.75573437436
16141000000,1.13708273107,-1.70706978345,-0.763406068244
16161000000,1.13471657722,-1.70939450227,-0.771078127459
16181000000,1.13233217011,-1.71170134647,-0.778750151538
16201000000,1.12992978512,-1.71399031462,-0.786422680788
16221000000,1.12750942646,-1.71626113749,-0.794095183969
16241000000,1.12507135467,-1.71851380278,-0.801768196373
16261000000,1.12261559811,-1.72074806199,-0.809441191315
16281000000,1.12014234497,-1.72296383002,-0.817114438749
16301000000,1.1176517864,-1.72516101352,-0.824788197984
16322000000,1.11514398947,-1.72733943046,-0.83246208807
16341000000,1.11261913726,-1.72949897708,-0.840136365262
16361000000,1.11007748568,-1.731639652,-0.847810647413
16381000000,1.1075189275,-1.73376102751,-0.855485196154
16401000000,1.10494371684,-1.73586312703,-0.86316027202
16421000000,1.10235200683,-1.73794581365,-0.870835491697
16441000000,1.09974395296,-1.74000897117,-0.878511112801
16461000000,1.09711982705,-1.74205262612,-0.886186762013
16481000000,1.09447948243,-1.74407629287,-0.893862694909
16501000000,1.0918232782,-1.7460801029,-0.901539159801
16521000000,1.08915132505,-1.74806388452,-0.909215912088
16541000000,1.08646372884,-1.75002745641,-0.916892709841
16561000000,1.08376070737,-1.75197078188,-0.924569803893
16581000000,1.08104242396,-1.7538937561,-0.932247436547
16601000000,1.07830899624,-1.75579621235,-0.939925248368
16621000000,1.07556059792,-1.75767805866,-0.947603482897
16641000000,1.07556058223,-1.7576780368,-0.947603244592
16661000000,1.07001948029,-1.76137939387,-0.962960630333
16681000000,1.06722708125,-1.76319868054,-0.970639556278
16701000000,1.06442033948,-1.76499689757,-0.97831903022
16721000000,1.06159951325,-1.76677408402,-0.985998588445
16741000000,1.05876455488,-1.76852981766,-0.993678698949
16761000000,1.05591575501,-1.77026418385,-1.00135890258
16781000000,1.05305322094,-1.77197698946,-1.0090394351
16801000000,1.05017857079,-1.77366823038,-1.01672070126
16821000000,1.04729841266,-1.77533777871,-1.02440250924
16841000000,1.04441388587,-1.77698559831,-1.0320850888
16861000000,1.04152509498,-1.77861128438,-1.03976788525
16881000000,1.03863250763,-1.7802151378,-1.04745112686
16901000000,1.03573603083,-1.7817964338,-1.05513408425
16921000000,1.03283633034,-1.78335580574,-1.06281744404
16941000000,1.02993328368,-1.78489250952,-1.07050021137
16961000000,1.02702738585,-1.78640690891,-1.07818314908
16981000000,1.02411865447,-1.78789849968,-1.08586518994
17001000000,1.02120609197,-1.78936736189,-1.09354658944
17021000000,1.01828334022,-1.7908134632,-1.10122797128
17041000000,1.01534948995,-1.79223668694,-1.10890877859
17061000000,1.01240461423,-1.7936368984,-1.11658950032
17081000000,1.00944903688,-1.79501438761,-1.124269545
17101000000,1.00648258969,-1.79636838276,-1.13194961825
17122000000,1.00350561495,-1.79769915052,-1.13962937186
17141000000,1.00051846293,-1.79900699403,-1.14730829567
17161000000,0.997520975097,-1.80029107057,-1.15498741756
17181000000,0.994513568669,-1.80155188907,-1.1626657177
17201000000,0.991496321961,-1.80278912049,-1.17034405058
17221000000,0.991496321961,-1.80278912049,-1.17034405058
17241000000,0.985432975814,-1.80519236456,-1.18569997568
17261000000,0.982387319482,-1.806358443,-1.19337757333
17281000000,0.979332646795,-1.80750089891,-1.20105453087
17301000000,0.976268994658,-1.80861928991,-1.20873153957
17321000000,0.973196627024,-1.80971375643,-1.21640791318
17341000000,0.970115713556,-1.81078419749,-1.22408434475
17361000000,0.967026451721,-1.81183058759,-1.23176014633
17381000000,0.963929015773,-1.81285283742,-1.23943566612
17401000000,0.960823590867,-1.81385088752,-1.24711125496
17421000000,0.957710365285,-1.81482468817,-1.25478622127
17441000000,0.954589524924,-1.81577418318,-1.26246126378
17461000000,0.95146125726,-1.81669932169,-1.27013586366
17481000000,0.948325745459,-1.81760003919,-1.27781037239
17501000000,0.945183177817,-1.81847628762,-1.28548427001
17521000000,0.942033741725,-1.81932801644,-1.29315825763
17541000000,0.941788338618,-1.81938374704,-1.29368805455
17561000000,0.941783553027,-1.81938365958,-1.29684357607
17581000000,0.938566138253,-1.81368489882,-1.30052789967
17601000000,0.935014743692,-1.80724385959,-1.30433526444
17621000000,0.931480948296,-1.80076168551,-1.30830058406
17641000000,0.928043227014,-1.79452785856,-1.3108512665
17661000000,0.924560410901,-1.78801747132,-1.31481621517
17681000000,0.921090293239,-1.78144120076,-1.31878086217
17701000000,0.917661352768,-1.77490257658,-1.32274536942
17721000000,0.914244565363,-1.76829985975,-1.32670953634
17741000000,0.910866924207,-1.76173414264,-1.33067361091
17761000000,0.907503725939,-1.7551056875,-1.33463697523
17781000000,0.907503725939,-1.7551056875,-1.33463697523
17801000000,0.900869813946,-1.74186044095,-1.34256392411
17821000000,0.897598153241,-1.73524111811,-1.34652710958
17841000000,0.894344930053,-1.72857266549,-1.35048998802
17861000000,0.891126531726,-1.72192720496,-1.35445273032
17875000000,0.891121341604,-1.72190367901,-1.35445264417
17901000000,0.884761491076,-1.70855909906,-1.36237737418
17921000000,0.88162329686,-1.70187524028,-1.36633944794
17941000000,0.878510795895,-1.69517347291,-1.37030125395
17961000000,0.875426233726,-1.68846456468,-1.37426287955
17981000000,0.872368457489,-1.68173535622,-1.37822419042
18001000000,0.86933913438,-1.67500154743,-1.3821853676
18021000000,0.866334459762,-1.66825099059,-1.38614622665
18041000000,0.866334131742,-1.66824924205,-1.38614618089
18061000000,0.86041034197,-1.65471996164,-1.39406735652
18081000000,0.85748761081,-1.64793736451,-1.39802757942
18101000000,0.854592236683,-1.64114416972,-1.40198762207
18121000000,0.851723800449,-1.63433779944,-1.40594734252
18141000000,0.848882877289,-1.62752149947,-1.40990692922
18161000000,0.846069086336,-1.62069282789,-1.41386619098
18181000000,0.843282787641,-1.61385385891,-1.41782531993
18201000000,0.840523768288,-1.60700308489,-1.4217841213
18221000000,0.837792265027,-1.60014188426,-1.42574279088
18241000000,0.835088163652,-1.5932693256,-1.42970113031
18262000000,0.832411588224,-1.5863860761,-1.43365923729
18281000000,0.82962979896,-1.57914690497,-1.43781430531
18301000000,0.827142385339,-1.57258762385,-1.4415749532
18321000000,0.824548780431,-1.56567274114,-1.44553242402
18342000000,0.821982657185,-1.55874747605,-1.4494896015
18361000000,0.81944423868,-1.55181192641,-1.45344665101
18381000000,0.816933554405,-1.54486612105,-1.45740336141
18401000000,0.814450655513,-1.53791027569,-1.46135983664
18421000000,0.811995581788,-1.53094451955,-1.46531618622
18441000000,0.809569789495,-1.52396874974,-1.46927224664
18461000000,0.807170466797,-1.51698341102,-1.47322812816
18481000000,0.804799074418,-1.50998842126,-1.47718366399
18501000000,0.802457077899,-1.50298379282,-1.48113896314
18521000000,0.800141658994,-1.4959699159,-1.48509413887
18541000000,0.797854279613,-1.48894673678,-1.48904902209
18561000000,0.795594976409,-1.48191440049,-1.49300366874
18581000000,0.793363781696,-1.47487299234,-1.49695813638
18601000000,0.791160730437,-1.4678226353,-1.50091225108
18621000000,0.788987284788,-1.46076333282,-1.50486612708
18641000000,0.78684061886,-1.45369540177,-1.50881988335
18661000000,0.784722196914,-1.4466188553,-1.51277340198
18681000000,0.782632049788,-1.4395337997,-1.51672656283
18701000000,0.780570210642,-1.43244037256,-1.52067948349
18721000000,0.778536709136,-1.42533865462,-1.52463228714
18742000000,0.778536709026,-1.42533865228,-1.52463222565
18761000000,0.774554844001,-1.41111083478,-1.53253711645
18781000000,0.772606541871,-1.40398497517,-1.53648907798
18801000000,0.770686698593,-1.39685127764,-1.54044092428
18821000000,0.768795344457,-1.38970992209,-1.54439240626
18841000000,0.766932506582,-1.38256091491,-1.54834377209
18861000000,0.765098216948,-1.37540449809,-1.55229476632
18881000000,0.763292498641,-1.36824069919,-1.55624551168
18901000000,0.761515379291,-1.36106957959,-1.56019615438
18921000000,0.759766887338,-1.35389134359,-1.56414648502
18941000000,0.758047048625,-1.34670605165,-1.56809664456
18961000000,0.756357320552,-1.33951386071,-1.57204641971
18981000000,0.756357320552,-1.33951386071,-1.57204641971
19002000000,0.753061140219,-1.32510917071,-1.5799453838
19021000000,0.751456170145,-1.31789689678,-1.58389442798
19041000000,0.74987997883,-1.31067817199,-1.58784337466
19058000000,0.749879978888,-1.31067816847,-1.58784330094
19081000000,0.746815457363,-1.29622182988,-1.59574046181
19101000000,0.745325740678,-1.28898441119,-1.59968852931
19122000000,0.743864894818,-1.28174100057,-1.60363650187
19141000000,0.742432941589,-1.27449168828,-1.60758407406
19161000000,0.741029903073,-1.26723661642,-1.61153139687
19181000000,0.741029903073,-1.26723661642,-1.61153139687
19201000000,0.738310664478,-1.25270963289,-1.6194255488
19221000000,0.73820706805,-1.25189638949,-1.61972047512
19241000000,0.736997627543,-1.24542887625,-1.62352144689
19261000000,0.735701800343,-1.23815258578,-1.62747247827
19281000000,0.734409888578,-1.23089159059,-1.63105072552
19301000000,0.733124445478,-1.22360362799,-1.63502142053
19321000000,0.731841999095,-1.21634407987,-1.63900189117
19341000000,0.730567152555,-1.20904545197,-1.64299347599
19361000000,0.729253842327,-1.20136682275,-1.64718637372
19381000000,0.728094151285,-1.19441562624,-1.65098276177
19401000000,0.726900531918,-1.18710261079,-1.65497784627
19421000000,0.725736430356,-1.17978143256,-1.65897308442
19441000000,0.724601428598,-1.17245945916,-1.66296830841
19461000000,0.72349601143,-1.16513148696,-1.66696361106
19483000000,0.722419876902,-1.15780103789,-1.67095892654
19501000000,0.721373453369,-1.1504640783,-1.67495435094
19521000000,0.721373453369,-1.1504640783,-1.67495435094
19541000000,0.719371605641,-1.13578207965,-1.68294526348
19561000000,0.718414849122,-1.12843624795,-1.68694074966
19581000000,0.717486293522,-1.12108567679,-1.69093634103
19601000000,0.716587238731,-1.11373198433,-1.69493197102
19621000000,0.715717657109,-1.10637557498,-1.69892757455
19642000000,0.714877669043,-1.09901570334,-1.70292324725
19666000000,0.714067229333,-1.09165293735,-1.70691892398
19681000000,0.713286425715,-1.08428684325,-1.71091469986
19701000000,0.712535180092,-1.07691819331,-1.71491044574
19721000000,0.711813579798,-1.069546572,-1.71890628846
19741000000,0.711121575702,-1.06217251117,-1.72290209945
19763000000,0.710459230151,-1.05479578576,-1.72689800503
19781000000,0.709826511373,-1.04741678756,-1.73089387708
19801000000,0.709223464605,-1.04003541168,-1.73488984154
19821000000,0.70865007117,-1.03265195,-1.73888577061
19841000000,0.708106364132,-1.02526637657,-1.74288178972
19861000000,0.707592332296,-1.0178789257,-1.74687777176
19881000000,0.707108002047,-1.01048961152,-1.7508738416
19901000000,0.706653364282,-1.00309864608,-1.75486987257
19921000000,0.706228439525,-0.99570607466,-1.75886598907
19941000000,0.705833227674,-0.988312052724,-1.76286212716
19961000000,0.705833227674,-0.988312052724,-1.76286212716
19981000000,0.705133222044,-0.973520247788,-1.77085441582
20001000000,0.705124529679,-0.972699044676,-1.77116455521
20021000000,0.704817067834,-0.966110986356,-1.77501275194
20041000000,0.704536581061,-0.958733360728,-1.77864688958
20061000000,0.704291521213,-0.951334371685,-1.78264310923
20082000000,0.704067365879,-0.943968465578,-1.78663936919
20101000000,0.703880355952,-0.936567537205,-1.79063557038
20121000000,0.703723996459,-0.929162151121,-1.79463181394
20141000000,0.703598447334,-0.921751952326,-1.79862810015
20161000000,0.70350074886,-0.914349858733,-1.80262433806
20181000000,0.703434185892,-0.906941864338,-1.80662064706
20201000000,0.703396022698,-0.899539594031,-1.810616906
20221000000,0.703388124094,-0.89213536806,-1.81461320376
20241000000,0.703409483263,-0.884733392818,-1.8186094795
20261000000,0.703461354591,-0.877328801659,-1.82260582187
20281000000,0.703542237726,-0.869927597871,-1.82660211019
20301000000,0.703653369145,-0.862525095438,-1.83059846357
20321000000,0.703793766096,-0.855125137578,-1.83459476015
20341000000,0.703964240147,-0.847724785296,-1.83859112079
20361000000,0.704164138184,-0.840326548668,-1.84258742167
20381000000,0.704393992832,-0.832928595441,-1.84658378428
20401000000,0.704653376359,-0.8255325554,-1.85058008538
20421000000,0.704653514787,-0.82553207303,-1.85058014603
20441000000,0.705263085675,-0.810742948959,-1.85857285035
20461000000,0.70561316378,-0.803351535445,-1.86256909929
20481000000,0.705991182788,-0.795962230147,-1.86656538161
20501000000,0.70639918993,-0.788573761515,-1.87056166582
20521000000,0.706838332469,-0.78118744495,-1.87455768985
20541000000,0.70730574245,-0.77380283603,-1.87855396107
20561000000,0.707802883809,-0.766420214097,-1.88255028135
20581000000,0.708329669613,-0.759039938305,-1.88654653186
20601000000,0.708886169928,-0.751661882348,-1.8905428349
20621000000,0.70947229421,-0.744286419008,-1.89453905838
20641000000,0.710088209828,-0.736913123488,-1.89853534774
20661000000,0.710735004088,-0.7295434051,-1.90253155225
20681000000,0.711410474463,-0.722174849621,-1.90652782189
20701000000,0.712115155797,-0.714810432375,-1.91052399638
20721000000,0.712849652711,-0.707448498841,-1.9145202314
20741000000,0.713613544141,-0.700090317924,-1.91851637069
20761000000,0.714408330881,-0.692736067235,-1.92251256555
20781000000,0.715232560794,-0.685385568163,-1.9265087424
20801000000,0.716085163045,-0.678037626801,-1.93050482453
20821000000,0.716967212599,-0.670693596008,-1.93450092124
20842000000,0.716967212599,-0.670693596008,-1.93450092124
20861000000,0.718821293217,-0.656017317737,-1.94249304059
20881000000,0.719791981665,-0.64868468235,-1.94648902906
20901000000,0.720792007969,-0.641356538585,-1.95048506547
20916000000,0.720792007969,-0.641356538585,-1.95048506547
20941000000,0.722880647636,-0.626712564645,-1.95847697967
20961000000,0.723969168516,-0.619397122268,-1.96247285663
20981000000,0.725087033973,-0.612086440494,-1.96646877768
21001000000,0.726234364561,-0.604780302102,-1.97046459389
21021000000,0.727411027606,-0.597479096826,-1.97446045159
21041000000,0.728617092531,-0.59018273294,-1.97845620304
21061000000,0.729852464294,-0.582891503645,-1.98245199334
21081000000,0.731117184241,-0.575605384127,-1.98644767598
21102000000,0.732411184025,-0.568324600581,-1.99044339485
21121000000,0.733734475854,-0.561049194645,-1.99443900467
21140000000,0.733734469584,-0.561049208562,-1.99443907617
21161000000,0.733903634895,-0.560250259567,-1.99475463244
21181000000,0.730447367689,-0.564793823789,-1.99914306483
21201000000,0.726535002326,-0.5700257417,-2.00125975323
21221000000,0.722506163806,-0.575461295561,-2.00455054085
21241000000,0.718450601978,-0.580902061237,-2.00784120039
21261000000,0.714385702442,-0.58631064175,-2.01113205162
21281000000,0.710268890856,-0.591774676456,-2.01442261453
21301000000,0.706167931672,-0.597155970433,-2.01771353091
21321000000,0.702017287126,-0.602589536131,-2.02100416181
21341000000,0.697850194095,-0.608005476728,-2.02429482974
21361000000,0.693694410005,-0.613344867248,-2.02758585877
21381000000,0.689507257143,-0.618700478953,-2.03087673921
21401000000,0.685316982659,-0.624012535132,-2.03416783501
21421000000,0.681081048519,-0.629366330415,-2.03745853417
21440000000,0.681081048519,-0.629366330415,-2.03745853417
21461000000,0.672585913153,-0.63997154888,-2.04404061192
21481000000,0.66832507084,-0.645227184659,-2.04733186209
21501000000,0.664046789166,-0.650468609906,-2.05062315584
21521000000,0.659717550222,-0.655759822046,-2.05391402721
21541000000,0.655404320899,-0.660972535396,-2.05720541244
21561000000,0.651053848441,-0.666208325085,-2.06049637652
21580000000,0.651053848441,-0.666208325085,-2.06049637652
21601000000,0.642334654435,-0.676568264605,-2.06707923558
21621000000,0.637948989161,-0.681729217799,-2.07037064305
21641000000,0.633549573813,-0.686869340374,-2.07366226164
21661000000,0.629127456664,-0.692002706476,-2.07695362052
21681000000,0.624692971946,-0.697112890882,-2.08024534079
21701000000,0.620018209897,-0.702468715156,-2.08369947457
21721000000,0.615771118883,-0.707295004823,-2.08682857388
21741000000,0.611284214058,-0.712365498968,-2.09012014692
21761000000,0.606782524262,-0.717417720462,-2.09341177231
21781000000,0.602264627719,-0.722453948799,-2.09670374131
21801000000,0.59772857009,-0.727475402338,-2.09999560752
21821000000,0.593177274276,-0.732481454074,-2.10328768291
21841000000,0.588608639878,-0.737473542153,-2.10657950392
21861000000,0.584024144221,-0.742449194121,-2.10987168623
21881000000,0.579422654142,-0.747410346512,-2.11316361721
21902000000,0.574805157573,-0.752355380522,-2.11645590994
21922000000,0.570170929782,-0.757285526881,-2.1197479536
21941000000,0.565520633501,-0.762199725059,-2.12304035946
21961000000,0.560853813277,-0.76709874764,-2.12633251845
21981000000,0.556170919687,-0.771981893136,-2.12962504007
22002000000,0.551471670734,-0.776849643513,-2.13291731708
22021000000,0.546755353274,-0.781701087776,-2.136209657
22041000000,0.542023949503,-0.786537246513,-2.13950235524
22061000000,0.537276454608,-0.791357670204,-2.14279496487
22081000000,0.532513083448,-0.796162054584,-2.14608763664
22101000000,0.527733625666,-0.80095075303,-2.14938052133
22121000000,0.522938245836,-0.805723537025,-2.15267316816
22141000000,0.518127013164,-0.810480327509,-2.15596617914
22162000000,0.513299915932,-0.81522116798,-2.15925895454
22181000000,0.508457065714,-0.819945916,-2.16255179567
22201000000,0.503598562405,-0.824654449362,-2.16584500104
22221000000,0.503598541273,-0.824654480613,-2.16584485204
22241000000,0.493834632985,-0.834022924615,-2.17243146175
22261000000,0.488929291221,-0.838682793537,-2.17572457008
22281000000,0.484008499916,-0.843326254497,-2.17901804381
22301000000,0.479072230983,-0.847953373647,-2.18231128994
22321000000,0.474120615507,-0.852563988627,-2.18560490178
22341000000,0.469153633885,-0.857158152699,-2.18889828832
22361000000,0.464171373759,-0.861735766717,-2.19219174653
22384000000,0.459173925619,-0.866296729309,-2.19548557043
22401000000,0.454161290063,-0.87084106484,-2.19877931952
22421000000,0.449133558011,-0.87536867235,-2.20207328805
22441000000,0.444090734257,-0.879879569771,-2.20536703703
22461000000,0.439032898194,-0.884373672824,-2.20866086095
22481000000,0.433960150025,-0.888850870647,-2.21195505129
22501000000,0.428872493235,-0.893311183264,-2.21524917131
22522000000,0.423516225239,-0.897976325332,-2.21870632894
22533000000,0.423516094248,-0.897976498558,-2.21870603687
22561000000,0.41351974463,-0.90658967087,-2.22513213378
22581000000,0.408373131545,-0.910981784198,-2.22842641922
22601000000,0.40321096406,-0.91535615769,-2.23172107384
22610000000,0.402675406888,-0.915873279771,-2.23193262424
22641000000,0.402675406888,-0.915873279771,-2.23193262424
22661000000,0.403070416297,-0.912381982125,-2.23721926035
22681000000,0.403177728975,-0.91195456656,-2.23756485216
22701000000,0.403698908819,-0.908331247053,-2.2402243709
22721000000,0.404427400485,-0.904194033722,-2.24481705518
22741000000,0.405212629384,-0.900013142488,-2.24913791097
22761000000,0.405979715067,-0.895882716899,-2.25373136673
22781000000,0.406798616902,-0.891716431578,-2.2583247406
22801000000,0.407639182933,-0.887553162453,-2.262917982
22821000000,0.408464228683,-0.883434728988,-2.26751106714
22841000000,0.409325205467,-0.879300521532,-2.27210403822
22861000000,0.410188637629,-0.875190397087,-2.27669686101
22881000000,0.411102997301,-0.871047579965,-2.28128960325
22901000000,0.412004804441,-0.866946198686,-2.28588217659
22921000000,0.412952462262,-0.862818720957,-2.29047466629
22941000000,0.413913909803,-0.858702266698,-2.29506702651
22961000000,0.414873120295,-0.854614661828,-2.29965921806
22981000000,0.415859726426,-0.850522450059,-2.30425130118
23001000000,0.416856966779,-0.846444365128,-2.30884323493
23021000000,0.417885564008,-0.842357657976,-2.31343507623
23041000000,0.4189287981,-0.838280795621,-2.31802678369
23061000000,0.419982954453,-0.83421767885,-2.32261832164
23081000000,0.421056002653,-0.830159694026,-2.32720972519
23101000000,0.422153181542,-0.826101406479,-2.33180102769
23121000000,0.423267414499,-0.822050385873,-2.33639219171
23141000000,0.424397035147,-0.818008357357,-2.3409831847
23161000000,0.424398293386,-0.818007061289,-2.34098320058
23181000000,0.426715549697,-0.809938933498,-2.35016480992
23201000000,0.427901559557,-0.805913696392,-2.35475535459
23221000000,0.427901559557,-0.805913696392,-2.35475535459
23241000000,0.430333263673,-0.79787669607,-2.3639360996
23262000000,0.431573569732,-0.793870532091,-2.36852626693
23281000000,0.43283421405,-0.789868686921,-2.37311626002
23301000000,0.434114785005,-0.785871659046,-2.37770613267
23321000000,0.435412616626,-0.781882070071,-2.38229582974
23341000000,0.436729755307,-0.777898020836,-2.3868854025
23361000000,0.43806517506,-0.773920544274,-2.39147482283
23381000000,0.439418775855,-0.769949784239,-2.39606407849
23401000000,0.440790627017,-0.765985726996,-2.40065316954
23421000000,0.442181086917,-0.762028099992,-2.40524211726
23441000000,0.443590351911,-0.75807794926,-2.40983089117
23461000000,0.445017703152,-0.754133652131,-2.41441954234
23481000000,0.446463190768,-0.750196384261,-2.41900802984
23501000000,0.447926870332,-0.746266146696,-2.423596338
23521000000,0.449408967307,-0.742342797639,-2.42818449507
23538000000,0.449408967307,-0.742342797639,-2.42818449507
23561000000,0.45242840304,-0.734518141243,-2.43736032364
23581000000,0.453964961184,-0.730616476787,-2.44194798538
23601000000,0.455519764283,-0.72672207275,-2.44653549772
23621000000,0.457092862946,-0.722834944817,-2.45112284276
23641000000,0.458683724372,-0.718955587876,-2.45571000718
23661000000,0.460292907528,-0.715083596606,-2.46029701626
23681000000,0.461919794862,-0.71121952755,-2.46488384418
23701000000,0.463565328277,-0.707363782093,-2.46947050056
23721000000,0.465228088942,-0.703515335254,-2.47405699332
23741000000,0.466908904827,-0.699674689987,-2.47864331962
23762000000,0.468607594736,-0.695842041928,-2.48322947011
23781000000,0.470323908044,-0.692017636551,-2.48781543783
23801000000,0.472058144661,-0.688201295362,-2.49240123379
23821000000,0.473809964935,-0.684393329584,-2.49698684984
23841000000,0.475580294692,-0.680594162339,-2.50157231164
23861000000,0.477367687016,-0.676802809001,-2.50615370863
23881000000,0.47917247673,-0.673020116029,-2.51073878789
23901000000,0.480994843614,-0.669246007312,-2.51532368725
23921000000,0.482834909181,-0.665480448226,-2.51990840772
23941000000,0.48469261075,-0.661723538351,-2.52449294402
23961000000,0.486567974414,-0.657976367624,-2.52907728871
23981000000,0.488460370152,-0.654237316864,-2.53366146142
24001000000,0.490370010251,-0.650507343831,-2.53824544424
24021000000,0.492297068162,-0.646786377388,-2.54282923781
24041000000,0.494241326017,-0.643074617084,-2.54741284503
24061000000,0.496203144996,-0.639371870426,-2.55199626001
24081000000,0.498182158404,-0.635678436884,-2.55657948348
24101000000,0.500178020472,-0.631994593191,-2.5611625213
24121000000,0.502191147309,-0.628320113536,-2.56574536409
24141000000,0.504323657578,-0.624471638528,-2.5705559424
24161000000,0.506269045745,-0.621000438222,-2.57491049536
24181000000,0.508333154341,-0.617355008877,-2.57949273392
24201000000,0.510414348581,-0.613719130327,-2.58407479293
24221000000,0.512618446301,-0.609911319686,-2.58888455201
24241000000,0.514627702329,-0.606477678806,-2.59323835447
24261000000,0.516760088841,-0.60287132343,-2.59781980021
24281000000,0.516760088841,-0.60287132343,-2.59781980021
24301000000,0.521072838095,-0.595690031596,-2.60698213471
24320000000,0.521072975166,-0.595689950507,-2.60698212703
24341000000,0.525453400563,-0.588549978811,-2.61614365685
24361000000,0.527668331095,-0.584995125134,-2.62072411244
24381000000,0.529900054946,-0.58145156875,-2.62530436988
