%time,field.x,field.y,field.theta
3401000000,1.0665118952,0.275415314066,0.407434307493
3421000000,1.05768034442,0.272160291424,0.408548956933
3441000000,1.05765547829,0.272149539317,0.408548977678
3461000000,1.04000340599,0.265609770537,0.41077812173
3482000000,1.0389127901,0.265180395477,0.41085998526
3501000000,1.03065694011,0.262117328637,0.411951696468
3521000000,1.02225316708,0.258974255725,0.412967954485
3541000000,1.01344063525,0.255669812625,0.414082245986
3561000000,1.00465771726,0.252366948217,0.41519658939
3581000000,0.99585223968,0.249042644475,0.416310862316
3601000000,0.987018300703,0.245694181505,0.417425118957
3621000000,0.978220594207,0.242349594956,0.418539280974
3641000000,0.969392511253,0.238980490352,0.419653426684
3661000000,0.960602216256,0.235616617506,0.420767477205
3681000000,0.951791980494,0.232231654569,0.421881514055
3701000000,0.942993896598,0.228841092999,0.422995489706
3721000000,0.934215106952,0.225447609361,0.424109373267
3741000000,0.925434678337,0.222041796767,0.425223221738
3761000000,0.916663598208,0.218628618062,0.426336995901
3781000000,0.907888481575,0.215202004498,0.427450754353
3801000000,0.899125153559,0.211769146526,0.428564419273
3821000000,0.890360681404,0.208324156179,0.429678068557
3841000000,0.88160193686,0.204870167729,0.430791663206
3861000000,0.872850313741,0.201407830215,0.43190516512
3881000000,0.864102611995,0.197935678807,0.433018612887
3901000000,0.855356800172,0.194452772575,0.434132044768
3921000000,0.84661566409,0.19096039711,0.435245422247
3941000000,0.837879791987,0.187458829313,0.436358708037
3961000000,0.837879330625,0.187458614391,0.436358726776
3981000000,0.820417355675,0.18043091596,0.4385851259
4001000000,0.819446483143,0.180020727267,0.438644136616
4021000000,0.811717271053,0.176904480815,0.439677843855
4041000000,0.802673543324,0.17321126983,0.440989305102
4062000000,0.79395804873,0.169660755469,0.442102260168
4081000000,0.785598489061,0.166267284616,0.442999374698
4101000000,0.776890500239,0.162697475322,0.444112288362
4121000000,0.768186203303,0.159117740495,0.4452251861
4140000000,0.768180851177,0.159115189148,0.445225203491
4161000000,0.750780313736,0.15192447483,0.447450783031
4181000000,0.742088537852,0.148315637907,0.448563483174
4201000000,0.733393745791,0.144693638802,0.44967616416
4221000000,0.724705589563,0.141063115399,0.450788791335
4241000000,0.716026099545,0.13742506263,0.451901330724
4261000000,0.707349103694,0.133776497794,0.453013833881
4281000000,0.698676570897,0.130118374275,0.454126283789
4301000000,0.690009455704,0.126451160188,0.455238663611
4321000000,0.681344639876,0.122773331472,0.456351024109
4341000000,0.672685826977,0.119086701813,0.45746329802
4361000000,0.664029998762,0.115389790193,0.458575552402
4381000000,0.655378773374,0.111682919666,0.459687753537
4401000000,0.646732492368,0.107967206121,0.460799869182
4421000000,0.638090145148,0.10424167698,0.461911948499
4442000000,0.629452271072,0.100506600405,0.463023958894
4461000000,0.620818222485,0.0967616534867,0.464135949006
4481000000,0.612188797521,0.0930072347426,0.465247854436
4501000000,0.603563597739,0.0892425564802,0.466359741506
4521000000,0.594942665788,0.0854688177023,0.467471540422
4541000000,0.586325870945,0.0816853631016,0.468583319848
4561000000,0.577713575489,0.0778917863463,0.469695049046
4581000000,0.569105459203,0.0740891049166,0.470806691338
4601000000,0.560501858393,0.0702763093144,0.471918300346
4621000000,0.551902338404,0.0664543591713,0.473029838454
4641000000,0.543307072559,0.0626227516151,0.474141356223
4663000000,0.534716112191,0.0587815130096,0.475252821881
4681000000,0.526129563936,0.0549306981125,0.476364205948
4701000000,0.517547332136,0.0510702576793,0.477475552907
4721000000,0.508969485297,0.0472002269751,0.478586833401
4741000000,0.500395963806,0.0433205750193,0.479698091234
4761000000,0.491826860287,0.0394313497871,0.480809268362
4781000000,0.483262112049,0.0355325185713,0.481920422507
4801000000,0.474701793701,0.0316241202063,0.483031496494
4821000000,0.466145870503,0.027706136454,0.484142547176
4842000000,0.457594609808,0.023778113855,0.485253534052
4861000000,0.449047546969,0.0198409960911,0.48636446606
4882000000,0.449047562751,0.0198410044272,0.486364479772
4901000000,0.440504940076,0.0158943243384,0.487475347844
4921000000,0.423433516124,0.00797135118347,0.489696953213
4941000000,0.41490426866,0.00399601546932,0.490807697584
4961000000,0.406379754174,1.0676059347e-05,0.491918363583
4981000000,0.397859482728,-0.00398373538904,0.49302900135
5001000000,0.389343716123,-0.00798767541106,0.494139562974
5021000000,0.380832421174,-0.0120011616683,0.495250099545
5041000000,0.380832421174,-0.0120011616683,0.495250099545
5061000000,0.379857998172,-0.0124881392235,0.495326069947
5081000000,0.371961858952,-0.0180941119401,0.492511687764
5101000000,0.362722378798,-0.0245144331438,0.489771325386
5121000000,0.353746986442,-0.0307560308711,0.486739141866
5141000000,0.34522812765,-0.0367226520764,0.484519568316
5161000000,0.3361873157,-0.0429272807008,0.481487789913
5181000000,0.327155775572,-0.0490895919113,0.478456148094
5201000000,0.31808499381,-0.0552347814599,0.475424661951
5221000000,0.308996644296,-0.0613497152,0.472393318235
5241000000,0.2999081358,-0.0674274576266,0.469362117021
5261000000,0.290772547861,-0.073493588864,0.466331079816
5281000000,0.2816477456,-0.079517118718,0.463300166032
5301000000,0.272484684751,-0.0855207435261,0.460269420439
5321000000,0.263310985751,-0.0914943855956,0.457238819842
5341000000,0.2541312689,-0.0974340203484,0.454208337855
5361000000,0.244929085,-0.103347712854,0.4511780147
5381000000,0.235709738068,-0.109232861997,0.448147837087
5401000000,0.226475192339,-0.115086699517,0.445117790799
5421000000,0.217218512218,-0.120916182435,0.442087919319
5441000000,0.207945870445,-0.126716525828,0.439058195919
5461000000,0.198658705163,-0.132487071422,0.436028586066
5481000000,0.189351896338,-0.138230199255,0.432999157439
5501000000,0.18002961089,-0.143943971331,0.429969841152
5521000000,0.170688478454,-0.149628108424,0.426940690957
5541000000,0.161331423646,-0.155284904985,0.423911668942
5561000000,0.151956085098,-0.160913595408,0.420882832211
5581000000,0.142563929532,-0.166513508959,0.417854145626
5601000000,0.132684123612,-0.17236324088,0.414675253977
5621000000,0.123727829063,-0.177625993273,0.411797129401
5640000000,0.123727829063,-0.177625993273,0.411797129401
5661000000,0.104826191392,-0.188622033203,0.40574079852
5681000000,0.0953502002894,-0.194077814506,0.402712820728
5701000000,0.0858567130344,-0.199503246545,0.399685035975
5721000000,0.0763468905867,-0.204899625202,0.396657360412
5741000000,0.0668211056775,-0.210268574702,0.39362987813
5761000000,0.0572790934263,-0.215608401545,0.390602505342
5782000000,0.0477206899902,-0.220919163106,0.387575328657
5801000000,0.0381454871114,-0.226199228884,0.384548304378
5821000000,0.0285548934876,-0.231451584634,0.381521389855
5841000000,0.0189482546133,-0.236674699319,0.378494650583
5861000000,0.00932506665311,-0.241866983436,0.375468089332
5881000000,-0.00031330268493,-0.247031441657,0.372441633684
5901000000,-0.00996741852856,-0.252166506273,0.369415332451
5921000000,-0.019637224177,-0.257272144969,0.366389234257
5941000000,-0.0298077690335,-0.262602394054,0.363213058741
5961000000,-0.0390240278104,-0.267393614227,0.360337405197
5981000000,-0.0487403013768,-0.272410451179,0.35731177379
6001000000,-0.0584722837275,-0.277396284044,0.354286299226
6021000000,-0.0682189965369,-0.282354038196,0.35126098266
6041000000,-0.0779808081454,-0.287282075729,0.348235769766
6061000000,-0.0877576552079,-0.292180363319,0.345210740543
6081000000,-0.0877576552079,-0.292180363319,0.345210740543
6101000000,-0.0986627078723,-0.297561524626,0.341951264413
6121000000,-0.0990951334016,-0.297719589271,0.340886752903
6141000000,-0.115534656566,-0.30433632517,0.339073842865
6161000000,-0.134058351174,-0.311729207025,0.337170160062
6181000000,-0.15266325096,-0.319109782967,0.335217059946
6201000000,-0.170372134054,-0.326139234983,0.333712848466
6221000000,-0.189006481872,-0.333449080871,0.331760055238
6241000000,-0.207709036455,-0.340740769168,0.329807403859
6261000000,-0.226429323906,-0.347996807436,0.327854862191
6281000000,-0.245106606208,-0.355196739044,0.325902367861
6301000000,-0.263825254016,-0.36236711018,0.323950010211
6321000000,-0.282530732726,-0.369493743124,0.321997721117
6342000000,-0.301302688911,-0.376601055776,0.320045601946
6361000000,-0.320087523762,-0.383671114682,0.318093584829
6381000000,-0.338835408607,-0.3906856174,0.316141607604
6401000000,-0.357621764333,-0.397673444605,0.31418976754
6421000000,-0.376396510056,-0.404616257102,0.312237998113
6441000000,-0.395234694732,-0.411538202538,0.310286400237
6461000000,-0.414085275879,-0.418422755257,0.30833490884
6481000000,-0.432900727419,-0.425254937404,0.306383452315
6502000000,-0.451753404349,-0.432057724815,0.30443213778
6521000000,-0.470595599775,-0.438816126933,0.302480895821
6541000000,-0.489496782045,-0.445551744696,0.300529827999
6561000000,-0.508365429828,-0.452236211356,0.29857879277
6581000000,-0.508400785333,-0.452247055911,0.298578865612
6601000000,-0.54620238425,-0.465510754534,0.294677128715
6621000000,-0.565110221363,-0.472083914055,0.292726464842
6641000000,-0.584037613465,-0.478622293918,0.290775892159
6661000000,-0.602977640062,-0.485123540274,0.288825421545
6681000000,-0.622871866,-0.491909079723,0.286778475752
6701000000,-0.64089275357,-0.49801204291,0.284924737397
6721000000,-0.659864294558,-0.504399781438,0.282974598199
6741000000,-0.678854180569,-0.510752312056,0.281024594528
6761000000,-0.697851165492,-0.517064090123,0.279074607338
6781000000,-0.716864365366,-0.523339770791,0.277124815888
6803000000,-0.735885486705,-0.52957902668,0.2751750403
6821000000,-0.754921815843,-0.535779850005,0.273225461619
6841000000,-0.773968886658,-0.541945050218,0.271275990126
6861000000,-0.793026475931,-0.548072537722,0.269326532947
6881000000,-0.812096622575,-0.554162878742,0.267377228576
6901000000,-0.831179479313,-0.560214082949,0.265428077825
6921000000,-0.850272875134,-0.566229616785,0.263478940151
6941000000,-0.869378563428,-0.572207923736,0.261530003624
6961000000,-0.888496157785,-0.578146875102,0.259581127134
6981000000,-0.907625199937,-0.584048374966,0.257632310087
7001000000,-0.926765448341,-0.5899143797,0.25568364784
7021000000,-0.945917050556,-0.595742903502,0.253735045184
7041000000,-0.965080776795,-0.601532125848,0.25178664595
7061000000,-0.984255281302,-0.607285738934,0.249838355056
7081000000,-1.00344092351,-0.613001812717,0.247890074797
7101000000,-1.02263829644,-0.618678480854,0.24594195106
7121000000,-1.04184630577,-0.624319500664,0.243993935356
7141000000,-1.06106579566,-0.629921048652,0.24204597853
7161000000,-1.08029631653,-0.635485029343,0.240098228396
7181000000,-1.09953721598,-0.641013292947,0.23815048775
7201000000,-1.11878899226,-0.646503946032,0.236202954831
7221000000,-1.13805147708,-0.651956948351,0.234255430836
7241000000,-1.15828946431,-0.657641396548,0.232211670209
7262000000,-1.17661035526,-0.662746674868,0.2303608483
7281000000,-1.19590368173,-0.668086161436,0.228413762914
7301000000,-1.21520844937,-0.673388419423,0.22646667358
7324000000,-1.23549004236,-0.678916406747,0.224423312164
7341000000,-1.25384957673,-0.683878107357,0.222572865154
7361000000,-1.27318533353,-0.689066871478,0.22062616184
7381000000,-1.29253108792,-0.694218068413,0.218679612656
7399000000,-1.31188704127,-0.699331486257,0.216733069032
7421000000,-1.33125301714,-0.704407084707,0.214786739274
7441000000,-1.35062935785,-0.70944293789,0.212840519912
7461000000,-1.37001554417,-0.714440932555,0.210894305008
7481000000,-1.38941111454,-0.719402964777,0.208948252778
7502000000,-1.40881680208,-0.724325194138,0.207002257608
7521000000,-1.428231736,-0.729211430893,0.20505647884
7542000000,-1.44765623822,-0.73405974308,0.203110811088
7561000000,-1.46709061986,-0.738868201334,0.201165146234
7581000000,-1.48653442558,-0.743638706256,0.199219699857
7601000000,-1.50598717867,-0.748373150913,0.197274255733
7621000000,-1.52544920562,-0.753069606715,0.195328976542
7641000000,-1.54492042865,-0.757728058579,0.193383808199
7661000000,-1.56440076976,-0.762348490154,0.191438695969
7681000000,-1.58389016584,-0.766930888084,0.189493804536
7701000000,-1.60338853418,-0.771475235339,0.187549024561
7721000000,-1.62289579219,-0.775981515171,0.185604245022
7741000000,-1.64241187788,-0.780449714844,0.183659632146
7761000000,-1.6619367074,-0.784879817683,0.181715074945
7781000000,-1.6814702077,-0.789271809194,0.179770739946
7801000000,-1.68377586058,-0.789757593186,0.179555219032
7821000000,-1.68377265788,-0.789761744758,0.179550141954
7841000000,-1.68749720012,-0.792240310818,0.174760945467
7861000000,-1.69086126939,-0.79480669205,0.170175164826
7881000000,-1.69405312533,-0.797326834132,0.167276434151
7902000000,-1.69728749743,-0.799836987344,0.162691356609
7921000000,-1.70068781771,-0.802357856086,0.158106383447
7943000000,-1.70406204231,-0.804856131194,0.153521754599
7961000000,-1.70748574157,-0.807345248418,0.148937317196
7981000000,-1.71086192786,-0.809809854246,0.144353289077
8001000000,-1.7142536199,-0.812259469633,0.139769527649
8021000000,-1.71464211691,-0.812472753239,0.139433770721
8041000000,-1.71462586245,-0.812474847557,0.139240401666
8061000000,-1.7172659119,-0.816222049472,0.131290203152
8081000000,-1.72034597351,-0.820315442395,0.121373928264
8101000000,-1.72320291707,-0.824353227802,0.115983350718
8121000000,-1.72630410627,-0.828389409868,0.107422459433
8141000000,-1.72941447817,-0.832394267638,0.0988585833921
8161000000,-1.73255965358,-0.83637357761,0.0902957718685
8181000000,-1.73576461923,-0.840327415489,0.0817363719969
8201000000,-1.73895712917,-0.844249824737,0.0731687496917
8221000000,-1.74219416115,-0.84814520915,0.0646090179369
8241000000,-1.74550073256,-0.852014330341,0.0560511710017
8261000000,-1.7488276923,-0.855853833673,0.0474934183764
8281000000,-1.75219046552,-0.859664322872,0.0389363164453
8301000000,-1.7555964356,-0.863445651522,0.0303800274087
8321000000,-1.75902033294,-0.867196821251,0.0218239985421
8341000000,-1.76248201289,-0.870918125446,0.0132688415219
8361000000,-1.76598505679,-0.874609154298,0.0047141195532
8381000000,-1.76951665915,-0.878269491924,-0.00384001007344
8401000000,-1.77308308678,-0.881897319077,-0.0123936840883
8421000000,-1.77667614114,-0.885495538248,-0.0209466906014
8441000000,-1.78030197778,-0.889060726341,-0.0295003354971
8461000000,-1.78396147905,-0.892595599361,-0.0380524345476
8481000000,-1.78765040253,-0.896098479384,-0.0466145614266
8501000000,-1.79136966626,-0.899567538548,-0.0551655190364
8521000000,-1.7951197383,-0.903005530278,-0.0637160122883
8541000000,-1.7988981713,-0.906410809562,-0.0722658275828
8561000000,-1.80270634203,-0.909783019307,-0.0808151048052
8581000000,-1.80654442816,-0.913121858338,-0.0893639980249
8601000000,-1.81041091346,-0.916427184187,-0.0979122790637
8622000000,-1.814306234,-0.919698683151,-0.106460100355
8641000000,-1.81822913173,-0.922936220656,-0.115007228118
8661000000,-1.82218005581,-0.926139479537,-0.123553813939
8681000000,-1.82615902105,-0.929308178442,-0.132100021862
8701000000,-1.83016508082,-0.932442167169,-0.140645609025
8721000000,-1.83419814169,-0.935541188961,-0.149190655579
8741000000,-1.83825805447,-0.938604991217,-0.15773524451
8761000000,-1.84234402324,-0.941633429233,-0.166279124238
8781000000,-1.84645637751,-0.944626174873,-0.174822631236
8801000000,-1.8505942052,-0.947583114855,-0.183365424393
8821000000,-1.85475749367,-0.950503981401,-0.191907671313
8841000000,-1.8589461878,-0.953388507313,-0.20044955229
8861000000,-1.86315956933,-0.956236561749,-0.208990800966
8881000000,-1.86739758701,-0.959047880646,-0.217531596311
8901000000,-1.87165953075,-0.961822346892,-0.226071666413
8921000000,-1.87594534453,-0.964559701006,-0.234611188918
8941000000,-1.8802549596,-0.967259679596,-0.24315035418
8962000000,-1.88458766728,-0.96992217951,-0.251688881255
8981000000,-1.88894340162,-0.972546940364,-0.260226959168
9001000000,-1.89332144425,-0.975133876972,-0.268764301182
9021000000,-1.89772158196,-0.977681180198,-0.277301275673
9041000000,-1.90214379849,-0.980191769572,-0.285839079588
9061000000,-1.90658777519,-0.982663848228,-0.294388646175
9081000000,-1.91105262469,-0.985095811164,-0.302924007832
9101000000,-1.91553872401,-0.987490464919,-0.311458722179
9122000000,-1.91553867449,-0.987490481061,-0.311458620543
9141000000,-1.92457209507,-0.992161322697,-0.328526670755
9161000000,-1.92911737006,-0.994437315598,-0.337059593665
9181000000,-1.93368389939,-0.996674978771,-0.345592238618
9201000000,-1.93849977521,-0.998981302731,-0.354550743104
9221000000,-1.94287373424,-1.00103288513,-0.362657366184
9241000000,-1.94749848807,-1.00316854016,-0.371198710848
9261000000,-1.95214408904,-1.00528137961,-0.379749640495
9279000000,-1.95214408904,-1.00528137961,-0.379749640495
9301000000,-1.96149214974,-1.00943933678,-0.396883191278
9321000000,-1.9661953358,-1.01148336584,-0.40546487889
9341000000,-1.97091764164,-1.01350377694,-0.414094513361
9361000000,-1.97565797661,-1.0154948248,-0.422757607773
9381000000,-1.98041505412,-1.01744643149,-0.431357677547
9404000000,-1.98518819774,-1.01935669052,-0.439999010798
9421000000,-1.98997732155,-1.02122534504,-0.448598903651
9441000000,-1.99478136553,-1.02305260284,-0.45728119282
9461000000,-1.99478136553,-1.02305260284,-0.45728119282
9481000000,-2.00443508436,-1.02658127346,-0.474559568518
9501000000,-2.00928328004,-1.02828108544,-0.48315905327
9522000000,-2.01414582064,-1.02994027601,-0.491834161487
9541000000,-2.01902155485,-1.03155568497,-0.500505819362
9561000000,-2.02391074022,-1.03312858543,-0.509104936779
9581000000,-2.02881278439,-1.03465898629,-0.517738880398
9601000000,-2.03372826148,-1.03614801289,-0.526371835384
9621000000,-2.03865589739,-1.03759430694,-0.534970548336
9641000000,-2.04359531438,-1.0389977703,-0.543634680423
9661000000,-2.04854589626,-1.04035845587,-0.552296386048
9681000000,-2.0535079187,-1.04167586732,-0.560894657891
9701000000,-2.05848034616,-1.04295032513,-0.569553099504
9721000000,-2.06346343377,-1.04418133707,-0.578151053724
9741000000,-2.06845635815,-1.04536910446,-0.586777919018
9761000000,-2.07345888049,-1.04651345512,-0.595403901105
9783000000,-2.0784707582,-1.04761421556,-0.60400134528
9801000000,-2.08349122206,-1.04867158062,-0.612653230664
9821000000,-2.08852041416,-1.04968511201,-0.621250312555
9841000000,-2.09355746293,-1.0506550905,-0.629899070702
9861000000,-2.09885492943,-1.05162763442,-0.638927004212
9881000000,-2.10365366717,-1.05246243469,-0.647141494347
9901000000,-2.10871180571,-1.05329946322,-0.655785483112
9921000000,-2.11377767587,-1.05409373603,-0.664381600407
9941000000,-2.11884966189,-1.05484403075,-0.673010200055
9961000000,-2.12392657351,-1.05554899324,-0.681605885379
9981000000,-2.12900973698,-1.05621113001,-0.690243733458
10001000000,-2.13409809637,-1.05682897519,-0.698838966605
10021000000,-2.13944490509,-1.05743032107,-0.707904793468
10041000000,-2.14428567143,-1.05793058034,-0.716105798035
10061000000,-2.14938677104,-1.05841551879,-0.724700290403
10081000000,-2.1544921632,-1.05885570445,-0.733312431991
10101000000,-2.15959901283,-1.05925097053,-0.741906467334
10121000000,-2.1647083682,-1.05960212493,-0.750535450021
10141000000,-2.16982134822,-1.05990979782,-0.759172569354
10161000000,-2.17493632794,-1.06017304799,-0.76778056321
10181000000,-2.18005186791,-1.0603907505,-0.776373612638
10201000000,-2.18516958206,-1.06056522157,-0.784980507863
10221000000,-2.19028819746,-1.06069518476,-0.793586511553
10241000000,-2.19540622334,-1.06077957299,-0.802178754397
10261000000,-2.20052525437,-1.06082074203,-0.810796243077
10281000000,-2.20564413547,-1.06081728931,-0.819387917639
10304000000,-2.20564403166,-1.06081740095,-0.819411254264
10321000000,-2.21587905821,-1.06067745254,-0.836615099157
10342000000,-2.22099469594,-1.06054069113,-0.845205908474
10361000000,-2.22610835739,-1.06035966476,-0.853806330483
10382000000,-2.23121991454,-1.06013410048,-0.862396542179
10401000000,-2.23632862558,-1.05986444057,-0.871004758953
10421000000,-2.24143434754,-1.05955043361,-0.87961068828
10441000000,-2.24653691338,-1.0591918416,-0.888199974312
10461000000,-2.25163561215,-1.0587890954,-0.896796380029
10481000000,-2.2567301665,-1.05834210334,-0.905391985401
10501000000,-2.26182029713,-1.05785077081,-0.913980311274
10521000000,-2.26230274868,-1.05773843001,-0.914616659979
10542000000,-2.26231078156,-1.05772794915,-0.914995309495
10562000000,-2.25479094007,-1.07105552861,-0.923355758177
10581000000,-2.24625648102,-1.08614477202,-0.928523417211
10601000000,-2.23775853669,-1.10133946068,-0.933895215491
10621000000,-2.22974949341,-1.11602520619,-0.937366769203
10641000000,-2.22132134886,-1.13143502826,-0.942738618322
10661000000,-2.21306775771,-1.14676426468,-0.948110935975
10681000000,-2.20481761522,-1.16224983649,-0.953483210582
10701000000,-2.20481761522,-1.16224983649,-0.953483210582
10721000000,-2.18872673612,-1.1931292245,-0.96422896669
10741000000,-2.18075281275,-1.20871204397,-0.969601927064
10761000000,-2.17287314249,-1.22432378925,-0.974975113039
10781000000,-2.16512127982,-1.23991372654,-0.980348766942
10801000000,-2.1574333853,-1.25557598326,-0.985722520735
10821000000,-2.14983466463,-1.27128148409,-0.991096483614
10841000000,-2.1423364267,-1.28699547107,-0.996470821599
10861000000,-2.13488635863,-1.30280730623,-1.00184513316
10881000000,-2.12752382665,-1.31865657398,-1.00721967484
10901000000,-2.12028150949,-1.33449065694,-1.01259467954
10921000000,-2.11310859342,-1.35038992331,-1.0179697924
10941000000,-2.1060089714,-1.36634882552,-1.02334502203
10961000000,-2.09902431187,-1.38229873725,-1.0287207208
10981000000,-2.0921037003,-1.39832349715,-1.03409642317
11001000000,-2.08529179557,-1.4143482799,-1.03947259414
11021000000,-2.07855060943,-1.43043711208,-1.04484877804
11041000000,-2.07191222001,-1.44653487542,-1.05022542893
11061000000,-2.0653506147,-1.46268642543,-1.05560209829
11081000000,-2.05888648247,-1.47885527528,-1.06097923319
11102000000,-2.0525061584,-1.49506540214,-1.06635650129
11121000000,-2.04621824615,-1.51131086234,-1.07173399586
11141000000,-2.0400209428,-1.52758501881,-1.07711186123
11161000000,-2.03390358631,-1.54389771091,-1.08248977784
11181000000,-2.02787828992,-1.56023599283,-1.0878681456
11201000000,-2.0219391688,-1.57661084231,-1.09324654471
11221000000,-2.01608901316,-1.59301682814,-1.09862519611
11241000000,-2.01032918357,-1.60945108522,-1.10400431178
11261000000,-2.00465817925,-1.62591637685,-1.1093836804
11281000000,-2.00465708241,-1.62591858623,-1.10938347005
11301000000,-1.99358572285,-1.65894389672,-1.12014274457
11321000000,-1.98791269946,-1.67632609136,-1.12579028875
11341000000,-1.98287162361,-1.69208636265,-1.13090304414
11364000000,-1.97764762796,-1.7087003113,-1.13628363405
11381000000,-1.9725173141,-1.72534373249,-1.14166453078
11401000000,-1.96747243796,-1.74201355622,-1.14704679363
11421000000,-1.96251799055,-1.75870988541,-1.15242823174
11441000000,-1.95765369998,-1.77543317654,-1.15780983177
11461000000,-1.95287984216,-1.79218265862,-1.16319169696
11481000000,-1.9481966433,-1.80895765301,-1.1685739282
11501000000,-1.94760440099,-1.81083372659,-1.16893685373
11524000000,-1.94760699816,-1.81083886845,-1.16894090047
11541000000,-1.94431137775,-1.82113195521,-1.17321052014
11561000000,-1.94110090598,-1.83150921965,-1.17485632197
11581000000,-1.93771679139,-1.84236989614,-1.17728935598
11598000000,-1.93776114903,-1.84226323634,-1.17728924314
11621000000,-1.93108400366,-1.86398068743,-1.182155486
11641000000,-1.92778062241,-1.87486678287,-1.18458881805
11661000000,-1.9277921949,-1.87483837321,-1.1845886241
11681000000,-1.92126893112,-1.89661836338,-1.1894554945
11701000000,-1.91804419223,-1.90752812494,-1.19188920387
11721000000,-1.91484823857,-1.91844061623,-1.19432294048
11741000000,-1.91167694629,-1.92936620062,-1.19675689531
11761000000,-1.9085353022,-1.94029220556,-1.19919078407
11781000000,-1.90542065977,-1.95122911735,-1.20162478596
11801000000,-1.90232968201,-1.96217794472,-1.20405912097
11821000000,-1.89926685577,-1.973130911,-1.20649338509
11841000000,-1.8962295326,-1.98409491179,-1.20892795949
11862000000,-1.8932198035,-1.99506445777,-1.21136247216
11881000000,-1.89023621851,-2.00604337328,-1.21379729558
11901000000,-1.88727977978,-2.01702898759,-1.2162321515
11921000000,-1.88435021231,-2.02802202007,-1.21866713291
11941000000,-1.88144868218,-2.0390232973,-1.22110231309
11961000000,-1.87857310424,-2.05003046686,-1.22353732937
11981000000,-1.87572421094,-2.06104553022,-1.22597278324
12001000000,-1.87290265805,-2.0720666624,-1.22840691926
12021000000,-1.87010907819,-2.08309619255,-1.23084261187
12041000000,-1.86734134258,-2.09413182906,-1.23327827001
12061000000,-1.86460054131,-2.10517463226,-1.2357142295
12081000000,-1.86188701392,-2.11622361622,-1.23815013331
12101000000,-1.85920170802,-2.12728026258,-1.24058615397
12121000000,-1.85920170802,-2.12728026258,-1.24058615397
12141000000,-1.85390979747,-2.14941253396,-1.24545888234
12161000000,-1.85130451995,-2.16048853482,-1.24789547819
12181000000,-1.84872649843,-2.17157068255,-1.25033202357
12201000000,-1.84617555295,-2.18265950153,-1.25276887577
12221000000,-1.84365176369,-2.19375474002,-1.25520567922
12241000000,-1.84115521929,-2.20485611345,-1.25764278903
12261000000,-1.838562551,-2.21651813791,-1.26020012107
12281000000,-1.83624457488,-2.22707890112,-1.26251699154
12301000000,-1.83382992643,-2.23819866469,-1.2649545311
12321000000,-1.83144270788,-2.24932332699,-1.26739208254
12341000000,-1.83144270788,-2.24932332699,-1.26739208254
12361000000,-1.82675081921,-2.27159284131,-1.27226754287
12381000000,-1.82444652194,-2.2827364803,-1.27470555901
12401000000,-1.82216827546,-2.29388529518,-1.2771435455
12421000000,-1.82216841303,-2.29388484122,-1.27714345905
12441000000,-1.8176953351,-2.31619970141,-1.28202005524
12461000000,-1.81549914428,-2.32736541895,-1.28445852079
12482000000,-1.813330362,-2.33853655305,-1.28689719618
12501000000,-1.81118906791,-2.34971281146,-1.28933583096
12521000000,-1.80907512714,-2.36089464088,-1.29177476812
12541000000,-1.80698856991,-2.37208192635,-1.29421366779
12561000000,-1.80492946693,-2.38327440691,-1.29665270081
12581000000,-1.80289789841,-2.39447177959,-1.29909203481
12601000000,-1.8008937901,-2.40567429028,-1.30153141766
12625000000,-1.79891852349,-2.41688214058,-1.30397092277
12641000000,-1.79697079176,-2.42809482241,-1.30641065344
12661000000,-1.79504925943,-2.43931193418,-1.30885036325
12681000000,-1.79315525422,-2.45053387454,-1.31129036503
12702000000,-1.79128898574,-2.46175983033,-1.31373033296
12721000000,-1.78945004128,-2.47299134485,-1.31617043577
12741000000,-1.78764007764,-2.4842275722,-1.31861082631
12761000000,-1.78585632901,-2.49546807939,-1.32105128881
12781000000,-1.78410022476,-2.5067128767,-1.32349187883
12801000000,-1.78237172868,-2.51796208373,-1.32593268408
12821000000,-1.7806708614,-2.52921559993,-1.32837362394
12841000000,-1.78067086217,-2.52921559682,-1.3283733806
12861000000,-1.77735280642,-2.55173729053,-1.33325545568
12881000000,-1.77573507763,-2.56300336153,-1.33569683431
12901000000,-1.77414689945,-2.57427076606,-1.33813915057
12921000000,-1.77258435688,-2.58554482264,-1.34058078891
12941000000,-1.77105060894,-2.59682418618,-1.34303142583
12961000000,-1.7695434706,-2.60810597993,-1.3454733248
12981000000,-1.76806536041,-2.6193920729,-1.34791526326
13001000000,-1.76661367482,-2.6306813375,-1.35035743511
13021000000,-1.76518974352,-2.64197418668,-1.35279957891
13041000000,-1.76379355459,-2.65327064899,-1.35524185955
13061000000,-1.76242648721,-2.66457091277,-1.35768442317
13077000000,-1.762426454,-2.66457106576,-1.35768434525
13102000000,-1.75977292902,-2.68718121967,-1.36256991526
13121000000,-1.75848789354,-2.69849107401,-1.36501274685
13141000000,-1.75723057172,-2.70980458081,-1.36745571735
13161000000,-1.756001109,-2.7211210223,-1.36989897988
13181000000,-1.75479944167,-2.73244068404,-1.3723423041
13201000000,-1.753626996,-2.74376351759,-1.37478583335
13221000000,-1.75248234801,-2.75508951163,-1.37722935696
13241000000,-1.7513642236,-2.76641791232,-1.37967318357
13261000000,-1.75027404718,-2.77774866595,-1.38211698926
13281000000,-1.74921167459,-2.78908248626,-1.38456093427
13301000000,-1.74817714662,-2.80041914259,-1.38700516876
13321000000,-1.74717047333,-2.81175856251,-1.38944946795
13341000000,-1.74619171753,-2.82310038192,-1.39189398166
13361000000,-1.74524080571,-2.83444498103,-1.39433848638
13381000000,-1.7443178133,-2.84579192032,-1.39678313216
13401000000,-1.74342277484,-2.85714097313,-1.39922806613
13421000000,-1.7425556383,-2.86849240749,-1.40167306695
13441000000,-1.74171643197,-2.87984603484,-1.4041182086
13461000000,-1.74090517611,-2.89120170664,-1.40656356438
13481000000,-1.74012183504,-2.90255960978,-1.4090089152
13501000000,-1.73936646882,-2.91391935266,-1.41145455304
13521000000,-1.73863903425,-2.92528117222,-1.4139001873
13541000000,-1.73793956386,-2.93664483954,-1.41634596393
13561000000,-1.73726808062,-2.94801017614,-1.41879202612
13581000000,-1.73662456134,-2.95937730044,-1.42123815853
13601000000,-1.73600901975,-2.97074609395,-1.42368443312
13621000000,-1.73542147332,-2.98211640817,-1.42613092116
13641000000,-1.7348632825,-2.99348855089,-1.42857740042
13661000000,-1.73433171971,-3.00486184032,-1.43102418057
13681000000,-1.73382816674,-3.01623646173,-1.43347095626
13701000000,-1.73335261219,-3.02761245349,-1.43591801469
13721000000,-1.73290509687,-3.03898947919,-1.43836507588
13741000000,-1.73248556762,-3.05036789804,-1.44081242
13761000000,-1.73209403486,-3.061747608,-1.44325976847
13781000000,-1.73173053019,-3.07312833538,-1.44570726138
13801000000,-1.73139507389,-3.08450988024,-1.44815503569
13824000000,-1.73108764084,-3.09589240419,-1.45060288517
13841000000,-1.73080825319,-3.10727568955,-1.45305094706
13861000000,-1.73055689078,-3.11865986763,-1.45549901664
13881000000,-1.73033358667,-3.13004461858,-1.45794736674
13901000000,-1.73013831693,-3.14143011013,-1.46039572581
13921000000,-1.72997110975,-3.1528160516,-1.46284436472
13941000000,-1.72983194431,-3.16420259034,-1.4652930139
13961000000,-1.7297208366,-3.17558953886,-1.4677418089
13981000000,-1.7297208366,-3.17558953886,-1.4677418089
14001000000,-1.72958420118,-3.19836446507,-1.47263995973
14021000000,-1.72955728363,-3.2097521779,-1.47508933008
14041000000,-1.72955844341,-3.22113993649,-1.47753877439
14061000000,-1.72958766125,-3.23252787684,-1.47998842916
14081000000,-1.72964496896,-3.24391559899,-1.48243809852
14101000000,-1.72973032687,-3.25530349042,-1.48488804448
14121000000,-1.72973031286,-3.25530365192,-1.48488791466
14141000000,-1.7299863451,-3.27808033121,-1.48978806466
14161000000,-1.73015742878,-3.28946775687,-1.49223848296
14181000000,-1.73035655995,-3.30085377893,-1.49468895694
14201000000,-1.73058229006,-3.31224034133,-1.49713964192
14221000000,-1.73083613419,-3.32362596469,-1.49959033956
14242000000,-1.73083613419,-3.32362596469,-1.49959033956
14261000000,-1.73142800121,-3.34639627004,-1.50449230189
14281000000,-1.73176604619,-3.35778052858,-1.50694356654
14301000000,-1.73213215458,-3.36916428399,-1.50939485309
14321000000,-1.73252635732,-3.38054697622,-1.5118464123
14341000000,-1.73252634483,-3.38054718573,-1.51184628803
14361000000,-1.73339897584,-3.4033100134,-1.51674972576
14381000000,-1.73387741228,-3.4146898384,-1.51920172783
14402000000,-1.73387740895,-3.4146899021,-1.51920166651
14421000000,-1.73491990235,-3.43744627085,-1.52410610862
14441000000,-1.73548395717,-3.44882280761,-1.52655838117
14461000000,-1.73607469062,-3.46019779771,-1.52901042256
14482000000,-1.73607469062,-3.46019779771,-1.52901042256
14501000000,-1.73734177787,-3.4829435221,-1.53391599126
14521000000,-1.7380181078,-3.49431432105,-1.53636895512
14541000000,-1.73872251592,-3.50568351112,-1.53882215511
14561000000,-1.7394535952,-3.51705060727,-1.5412792558
14581000000,-1.74021274003,-3.52841585679,-1.54373262665
14601000000,-1.74099992789,-3.5397798501,-1.54618626327
14621000000,-1.74181516956,-3.55114212281,-1.54863999026
14641000000,-1.74263934903,-3.5625024732,-1.55108624151
14661000000,-1.74346536767,-3.57386057776,-1.55352284134
14681000000,-1.74429312529,-3.58521673962,-1.55595616978
14701000000,-1.74512239443,-3.59657063715,-1.55837163496
14722000000,-1.74596959317,-3.60792236221,-1.56078261501
14741000000,-1.74684424829,-3.61927191994,-1.56319394159
14761000000,-1.74774631859,-3.63061909192,-1.56560461983
14781000000,-1.74867444384,-3.64196394263,-1.56801552239
14802000000,-1.74963000619,-3.65330653976,-1.57042673378
14822000000,-1.75061300366,-3.66464682004,-1.57283772697
14841000000,-1.7516234325,-3.67598462412,-1.5752486788
14861000000,-1.75266128544,-3.68731968554,-1.57765976558
14881000000,-1.75372655851,-3.69865237588,-1.58007046011
14901000000,-1.75481924087,-3.70998208346,-1.58248146612
14921000000,-1.75594068933,-3.72130921591,-1.58489206873
14941000000,-1.75708818415,-3.73263330468,-1.58730300535
14961000000,-1.75826306032,-3.74395450764,-1.5897135428
14981000000,-1.75946531692,-3.75527271586,-1.5921243919
15001000000,-1.75946531417,-3.75527258266,-1.59212404067
15021000000,-1.76195331264,-3.77789978692,-1.59694562122
15041000000,-1.76323767256,-3.78920870248,-1.59935600601
15061000000,-1.7645493816,-3.80051435665,-1.60176670353
15081000000,-1.76588842982,-3.81181659543,-1.60417701288
15101000000,-1.76725481626,-3.82311557744,-1.60658763642
15125000000,-1.76864989016,-3.83441125357,-1.60899785244
15141000000,-1.77007229154,-3.84570324935,-1.6114083951
15161000000,-1.77152200368,-3.85699167298,-1.61382054784
15181000000,-1.77299763723,-3.86827609106,-1.61623918733
15201000000,-1.77450192838,-3.8795571824,-1.61864962447
15221000000,-1.77603214019,-3.89083434391,-1.62105969583
15241000000,-1.77758962629,-3.90210790188,-1.62347007542
15261000000,-1.77917436671,-3.91337743849,-1.62588024456
15281000000,-1.78078637178,-3.92464323289,-1.62829037993
15302000000,-1.78242561512,-3.93590490969,-1.63070065714
15321000000,-1.78409210557,-3.94716271787,-1.63311055177
15341000000,-1.78578580597,-3.9584161459,-1.63552076394
15361000000,-1.78750673042,-3.96966551877,-1.63793059456
15381000000,-1.78925485444,-3.98091055035,-1.64034039374
15401000000,-1.7894070363,-3.98218591006,-1.64048947177
15421000000,-1.7894146706,-3.9822364893,-1.64055665927
15441000000,-1.78817796989,-3.96925805583,-1.63967169205
15461000000,-1.78683918238,-3.9551046437,-1.63930766514
15481000000,-1.7854783062,-3.94043814512,-1.63835392929
15501000000,-1.78416259058,-3.92624944665,-1.63750623
15521000000,-1.78281534453,-3.91136761676,-1.63654391353
15541000000,-1.78149598665,-3.8966962502,-1.63558994859
15561000000,-1.78019067654,-3.88202362154,-1.63463598471
15574000000,-1.7801796618,-3.8818475164,-1.63462817018
15601000000,-1.78007728387,-3.88018802734,-1.63459594638
15621000000,-1.77985548498,-3.85984224643,-1.63673092707
15641000000,-1.77963575269,-3.83859123167,-1.63844191298
15661000000,-1.77930945802,-3.81657477764,-1.64099933364
15681000000,-1.77930945802,-3.81657477764,-1.64099933364
15701000000,-1.77846738645,-3.77230803468,-1.6461137367
15721000000,-1.77796411034,-3.75020355013,-1.64867078732
15741000000,-1.77739311786,-3.72795790313,-1.65122803973
15761000000,-1.77677661165,-3.70585658552,-1.65378523643
15781000000,-1.77609459445,-3.68365273779,-1.65634255912
15801000000,-1.77535844501,-3.6614849029,-1.65889991787
15821000000,-1.77457168534,-3.63938945396,-1.66145722425
15841000000,-1.77372556555,-3.61726668716,-1.66401460209
15861000000,-1.77282551724,-3.59517575596,-1.66657196706
15881000000,-1.77186334051,-3.57303105615,-1.6691294379
15901000000,-1.77084996368,-3.55094525421,-1.67168685905
15921000000,-1.76977438191,-3.52880792824,-1.67424438527
15941000000,-1.76864210553,-3.50667505839,-1.67680193671
15961000000,-1.7674559184,-3.48457222785,-1.67935947717
15981000000,-1.76621309488,-3.46249873734,-1.68191700905
16001000000,-1.76491364487,-3.44040295155,-1.68447460041
16021000000,-1.76356046751,-3.41833601823,-1.68703218097
16041000000,-1.76215075064,-3.39627272635,-1.68958978713
16061000000,-1.76067566491,-3.37414056986,-1.69214753305
16081000000,-1.7591472895,-3.35204139443,-1.69470526335
16101000000,-1.75756771396,-3.3299899448,-1.69726293275
16121000000,-1.75592928161,-3.30792450343,-1.69982067054
16141000000,-1.75423667496,-3.2858816707,-1.7023783901
16161000000,-1.75248396863,-3.26381645468,-1.70493622058
16181000000,-1.75067598437,-3.24176558005,-1.70749407493
16201000000,-1.74881386723,-3.21973675754,-1.71005186569
16221000000,-1.74689374304,-3.19770191288,-1.71260976579
16241000000,-1.74491872297,-3.17568314257,-1.71516760111
16261000000,-1.74288390775,-3.15366612981,-1.71772550343
16281000000,-1.74079558761,-3.1316548854,-1.72028342297
16301000000,-1.7386513312,-3.10965226975,-1.72284132095
16321000000,-1.73645001437,-3.08765094848,-1.72539932656
16341000000,-1.73418976421,-3.0656574751,-1.72795735336
16361000000,-1.73187639415,-3.04367230797,-1.73051530872
16381000000,-1.72950651876,-3.02169221808,-1.73307332802
16401000000,-1.72708026845,-2.99971808508,-1.73563140853
16421000000,-1.72459792829,-2.9777516646,-1.73818942038
16441000000,-1.72205914405,-2.95579087908,-1.7407475361
16461000000,-1.71946423848,-2.93383767506,-1.74330558234
16481000000,-1.71946418273,-2.93383735456,-1.7433056255
16501000000,-1.71410561697,-2.8899515627,-1.74842176723
16521000000,-1.71134190803,-2.86801879996,-1.75097994812
16541000000,-1.70852207773,-2.84609375559,-1.75353805806
16560000000,-1.70852202377,-2.84609346315,-1.75353814413
16581000000,-1.70271099696,-2.80226604156,-1.75865513357
16601000000,-1.6997226684,-2.78036362514,-1.76121329371
16618000000,-1.69972265651,-2.78036356337,-1.76121916973
16641000000,-1.69342132602,-2.73548749333,-1.76646220418
16661000000,-1.69041855351,-2.71470429916,-1.76889383932
16681000000,-1.68720521043,-2.69283286674,-1.77145204814
16701000000,-1.68393642881,-2.67097104113,-1.77401026541
16721000000,-1.68060908454,-2.64911948262,-1.77656857467
16741000000,-1.68060907908,-2.64911945641,-1.77656891951
16761000000,-1.67379146851,-2.60543907552,-1.78168817414
16781000000,-1.67379146851,-2.60543907552,-1.78168817414
16803000000,-1.66674726992,-2.56179531984,-1.78680479333
16821000000,-1.66313988758,-2.5399874903,-1.78936315964
16841000000,-1.65947938955,-2.51818850787,-1.7919214469
16861000000,-1.65576302542,-2.49639908702,-1.79447978733
16881000000,-1.65199083114,-2.47461941605,-1.7970381357
16901000000,-1.64816280338,-2.45284951584,-1.79959644959
16921000000,-1.64427899248,-2.43108963935,-1.80215485542
16941000000,-1.64033664643,-2.40934048689,-1.80471318585
16961000000,-1.63634131413,-2.38760094659,-1.80727160324
16981000000,-1.6322902648,-2.36587181579,-1.80983002841
17001000000,-1.62818352654,-2.34415323848,-1.81238837492
17021000000,-1.6240211296,-2.32244537078,-1.81494676875
17041000000,-1.6240211296,-2.32244537078,-1.81494676875
17061000000,-1.61552945108,-2.27906226128,-1.82006357051
17081000000,-1.61119748142,-2.25738800382,-1.82262193796
17101000000,-1.60681270397,-2.23572430579,-1.82518038872
17122000000,-1.60237239963,-2.21407200145,-1.82773884426
17141000000,-1.59787660562,-2.1924312591,-1.83029721902
17161000000,-1.59332261465,-2.17080294629,-1.83285564004
17181000000,-1.58871592203,-2.14918571883,-1.83541401746
17201000000,-1.58405381864,-2.12758044394,-1.83797248135
17221000000,-1.57933635697,-2.10598733858,-1.84053094586
17241000000,-1.57456354311,-2.08440645381,-1.84308932837
17261000000,-1.5697354196,-2.06283797201,-1.84564775246
17281000000,-1.56485201671,-2.04128202947,-1.84820617636
17301000000,-1.55991336407,-2.01973875907,-1.85076455848
17321000000,-1.55491950057,-1.99820832451,-1.85332302188
17344000000,-1.54987045163,-1.97669084133,-1.85588148367
17361000000,-1.54476625235,-1.95518645746,-1.85843986164
17381000000,-1.53960693682,-1.93369531585,-1.86099827829
17401000000,-1.53439254031,-1.91221756197,-1.86355665141
17421000000,-1.52912309769,-1.89075333857,-1.86611510308
17441000000,-1.52379593315,-1.86930360544,-1.86867355299
17461000000,-1.51841379198,-1.8478676795,-1.8712319161
17481000000,-1.51297940335,-1.8264448326,-1.8737903138
17501000000,-1.51297940335,-1.8264448326,-1.8737903138
17521000000,-1.5019459687,-1.78364163755,-1.87890709696
17541000000,-1.49634698195,-1.76226152278,-1.88146543993
17561000000,-1.49069320936,-1.74089595221,-1.88402385757
17581000000,-1.48498197616,-1.71954588192,-1.8865822704
17601000000,-1.4792187117,-1.69820971585,-1.88914059283
17621000000,-1.47340075557,-1.67688846129,-1.89169894968
17641000000,-1.47340075802,-1.67688846865,-1.89169898969
17661000000,-1.46160096553,-1.6342913601,-1.89681560128
17681000000,-1.46092510718,-1.63187704311,-1.89703391291
17701000000,-1.45534607376,-1.61196924364,-1.89953084605
17721000000,-1.44902844358,-1.58989886728,-1.90275034207
17741000000,-1.4432376845,-1.56953684592,-1.90456976426
17761000000,-1.43708937635,-1.54830921932,-1.90712808847
17781000000,-1.43089058201,-1.52710876535,-1.9096863961
17801000000,-1.42463340527,-1.50591289846,-1.91224463983
17821000000,-1.4183127828,-1.48470775002,-1.91480294819
17841000000,-1.41193576817,-1.46352184804,-1.9173612323
17861000000,-1.40551562757,-1.44237503127,-1.91991944659
17881000000,-1.39903812539,-1.42123620325,-1.92247768063
17901000000,-1.39250961085,-1.40012276112,-1.92503586254
17921000000,-1.38592698657,-1.37902620934,-1.92759403133
17941000000,-1.37928132247,-1.35793084924,-1.93015229396
17961000000,-1.3725881639,-1.33686214808,-1.93271051971
17981000000,-1.36584255671,-1.31581486949,-1.93526868739
18001000000,-1.35904386582,-1.29478728197,-1.93782680081
18021000000,-1.35219059564,-1.27377549196,-1.94038493753
18041000000,-1.34528416649,-1.2527832023,-1.94294302012
18061000000,-1.33832292833,-1.23180619619,-1.94550116369
18081000000,-1.33130565711,-1.21084915772,-1.94805928348
18101000000,-1.32423796292,-1.18991084822,-1.9506173222
18121000000,-1.3171166068,-1.16899080476,-1.95317533975
18141000000,-1.30994121145,-1.148088112,-1.95573341459
18161000000,-1.30271240905,-1.12720436275,-1.95829147136
18181000000,-1.29543035302,-1.10633994204,-1.96084943377
18201000000,-1.2880947343,-1.08549410933,-1.96340741509
18221000000,-1.28070570939,-1.0646672651,-1.96596537703
18241000000,-1.27326333091,-1.04385955397,-1.96852331918
18261000000,-1.26576768961,-1.02307120951,-1.97108120362
18282000000,-1.25821868657,-1.00230201623,-1.97363914245
18301000000,-1.2506164954,-0.981552402933,-1.97619705995
18321000000,-1.24296118493,-0.960822546723,-1.97875488158
18341000000,-1.23525012777,-0.940113525716,-1.98131271288
18362000000,-1.23525011072,-0.940113486526,-1.98131274984
18381000000,-1.21967149057,-0.898754288183,-1.98642828202
18401000000,-1.21180397675,-0.878104259242,-1.98898609188
18421000000,-1.20388356051,-0.857474575088,-1.99154387461
18441000000,-1.19590770204,-0.83686650941,-1.99410155358
18461000000,-1.18787902715,-0.816279008987,-1.99665928146
18481000000,-1.17980019548,-0.795711090974,-1.99921692579
18501000000,-1.17166607453,-0.775165188437,-2.001774568
18521000000,-1.1634818874,-0.754639104334,-2.00433215875
18541000000,-1.15524509927,-0.734134132563,-2.00688979145
18561000000,-1.14695577838,-0.713650433162,-2.00944739693
18581000000,-1.13861396459,-0.693188107131,-2.01200490357
18602000000,-1.13021715363,-0.672748502535,-2.01456241176
18621000000,-1.12177053741,-0.652329355234,-2.01711986881
18641000000,-1.11327159648,-0.631931990457,-2.01967736476
18661000000,-1.1047203944,-0.611556553467,-2.02223476068
18682000000,-1.09611699261,-0.591203186566,-2.02479219836
18701000000,-1.08745888676,-0.57087323345,-2.02734959874
18721000000,-1.07875124103,-0.550564366697,-2.02990691236
18741000000,-1.0699915571,-0.530277951646,-2.03246422711
18761000000,-1.06117989718,-0.510014126719,-2.03502147578
18781000000,-1.05231379347,-0.489774306241,-2.03757875445
18801000000,-1.04339838164,-0.469556098208,-2.04013601621
18821000000,-1.03443114719,-0.449360834707,-2.04269317456
18841000000,-1.02541218773,-0.429188723764,-2.04525033141
18861000000,-1.01634152931,-0.409039829515,-2.04780741908
18881000000,-1.00721929031,-0.38891439256,-2.05036453896
18901000000,-0.99804547838,-0.368812443442,-2.05292162332
18921000000,-0.988817627101,-0.348735395156,-2.05547860525
18941000000,-0.987768143797,-0.346464962183,-2.05570173901
18961000000,-0.987773367959,-0.346464648668,-2.0557070955
18981000000,-0.990046565663,-0.350254239503,-2.05710141788
19001000000,-0.993009518399,-0.355303864611,-2.05765759987
19021000000,-0.996078978964,-0.360547609115,-2.05831673959
19041000000,-0.999197968234,-0.365876351441,-2.05897561619
19064000000,-1.00227444297,-0.371116119326,-2.05963463077
19081000000,-1.00547017541,-0.376571602017,-2.06029335998
19101000000,-1.00855374734,-0.381807113501,-2.06095240732
19121000000,-1.01172703164,-0.387202240364,-2.06161116441
19141000000,-1.01481761801,-0.392433424371,-2.06227024735
19161000000,-1.01796832542,-0.397768374379,-2.06292905746
19181000000,-1.02110481185,-0.403067880893,-2.06358788125
19201000000,-1.02420599927,-0.408292829277,-2.06424702329
19221000000,-1.02732841319,-0.413548722448,-2.06490602091
19243000000,-1.03043657584,-0.418769506387,-2.06556518174
19261000000,-1.03358218827,-0.424051217684,-2.06622404472
19281000000,-1.03672936212,-0.429327108003,-2.06688291779
19301000000,-1.03672936212,-0.429327108003,-2.06688291779
19316000000,-1.03986334571,-0.434569923946,-2.06754195369
19341000000,-1.04611130648,-0.444992547786,-2.06886035967
19362000000,-1.04926977903,-0.450254829794,-2.0695192714
19381000000,-1.05242991212,-0.455511542812,-2.07017818627
19402000000,-1.05556599743,-0.460715537215,-2.07083741131
19424000000,-1.05871788836,-0.465940032198,-2.07149649366
19441000000,-1.06186108928,-0.47113971071,-2.07215573959
19461000000,-1.06502661208,-0.476372134173,-2.0728146914
19481000000,-1.06818897311,-0.481590271138,-2.07347365307
19501000000,-1.07134241,-0.486783691811,-2.07413293375
19521000000,-1.07450367201,-0.491982936854,-2.07479207114
19541000000,-1.07766402469,-0.497172123242,-2.07545137335
19561000000,-1.08083403142,-0.502370422984,-2.07611037711
19581000000,-1.08400129725,-0.50755536668,-2.07676970004
19601000000,-1.0871758966,-0.512745199117,-2.07742872385
19621000000,-1.09035024412,-0.517925795627,-2.07808806659
19641000000,-1.09353029398,-0.523108738373,-2.07874711067
19661000000,-1.09671289142,-0.528287922597,-2.07940616431
19681000000,-1.09989740835,-0.533462228589,-2.08006553738
19701000000,-1.10308590274,-0.538635356717,-2.08072476564
19721000000,-1.10627730775,-0.54380539403,-2.08138415853
19741000000,-1.10947292486,-0.548974669928,-2.08204325187
19761000000,-1.11267121289,-0.554140429415,-2.08270266459
19781000000,-1.11587342476,-0.559304910159,-2.08336177782
19802000000,-1.11907889547,-0.56446692587,-2.0840209012
19821000000,-1.12228767333,-0.569626152621,-2.08468034333
19841000000,-1.12549982111,-0.57478352549,-2.08533964161
19861000000,-1.12887464784,-0.580195985947,-2.0860301632
19881000000,-1.13193456389,-0.585091738113,-2.08665826006
19902000000,-1.13515695499,-0.590242505191,-2.08731744147
19921000000,-1.13838271888,-0.595391063438,-2.08797693414
19941000000,-1.141611911,-0.600537461294,-2.08863643691
19961000000,-1.14484459352,-0.605681808096,-2.08929564108
19981000000,-1.14808067783,-0.610823948031,-2.08995485561
20001000000,-1.15132014651,-0.615963850901,-2.09061438882
20024000000,-1.15456305624,-0.621101616205,-2.09127377804
20041000000,-1.15780936906,-0.626237177633,-2.09193333167
20062000000,-1.15780939124,-0.62623721635,-2.0919330234
20081000000,-1.16431227558,-0.6365018144,-2.09325216146
20101000000,-1.16756885768,-0.641630869649,-2.09391143783
20121000000,-1.17082885065,-0.646757735089,-2.09457072471
20141000000,-1.17117663092,-0.647337975586,-2.0945974888
20161000000,-1.17119360865,-0.647359336694,-2.09460871468
20181000000,-1.17262155951,-0.646506973125,-2.09854788469
20201000000,-1.1742942726,-0.645763700624,-2.10270269683
20221000000,-1.17585016506,-0.644819144948,-2.10694700385
20241000000,-1.17745077741,-0.643769595479,-2.10992349368
20261000000,-1.17888931092,-0.642808441505,-2.11395351593
20281000000,-1.18043327066,-0.641843777568,-2.11819805019
20301000000,-1.18196144035,-0.640853059248,-2.12244250288
20321000000,-1.18349750902,-0.639874967592,-2.12668717938
20341000000,-1.18500944398,-0.638858019371,-2.13093162957
20361000000,-1.18653745543,-0.637866598736,-2.13517645309
20381000000,-1.18812578156,-0.636798063408,-2.1396352244
20401000000,-1.1895681711,-0.635843164695,-2.14366602915
20421000000,-1.19107472043,-0.634817558763,-2.14791078817
20441000000,-1.19258188045,-0.633792720516,-2.15215562064
20461000000,-1.19408942266,-0.632768160716,-2.15640083683
20481000000,-1.19559090679,-0.631734141589,-2.16064598611
20501000000,-1.19709012474,-0.63069640452,-2.16489136867
20521000000,-1.19858233865,-0.629647974641,-2.16913653831
20541000000,-1.20007311646,-0.628597132569,-2.17338209299
20561000000,-1.20155776811,-0.627537063859,-2.17763031159
20581000000,-1.20303873869,-0.62647138012,-2.18187574753
20602000000,-1.20451665371,-0.625401002202,-2.1861215635
20621000000,-1.20598975901,-0.624323425995,-2.19036737792
20641000000,-1.20745897081,-0.623240119539,-2.19461336171
20661000000,-1.20892255681,-0.622148665812,-2.19885914934
20681000000,-1.21038295572,-0.621052490116,-2.20310532779
20701000000,-1.21183777295,-0.619948368166,-2.20735131242
20721000000,-1.2132892529,-0.618839401038,-2.21159768656
20741000000,-1.21473569565,-0.617723346629,-2.21584386877
20761000000,-1.21617805275,-0.616601509933,-2.22009015945
20781000000,-1.21761595597,-0.615473493866,-2.22433682491
20800000000,-1.21761595597,-0.615473493866,-2.22433682491
20821000000,-1.22047807375,-0.613198620532,-2.23283032649
20841000000,-1.22190235131,-0.61205195109,-2.23707701661
20861000000,-1.22332178572,-0.610898786623,-2.24132409804
20881000000,-1.22473658889,-0.609739450077,-2.24557099827
20901000000,-1.22614665926,-0.608573866049,-2.24981800569
20921000000,-1.22755196282,-0.607402045245,-2.25406540473
20941000000,-1.2289525121,-0.606224055299,-2.2583127698
20961000000,-1.23034826377,-0.60503989486,-2.26256038574
20981000000,-1.23173920365,-0.603849598175,-2.26680782892
21001000000,-1.23312529927,-0.602653177312,-2.27105566592
21021000000,-1.23450651802,-0.601450625635,-2.27530334255
21041000000,-1.23588289093,-0.60024207234,-2.27955111746
21061000000,-1.23725430846,-0.599027411846,-2.2837992923
21081000000,-1.2386208845,-0.597806808004,-2.28804745564
21101000000,-1.23998238788,-0.596580092336,-2.2922958544
21121000000,-1.2413389162,-0.595347395693,-2.29654568336
21142000000,-1.24269044561,-0.594108743832,-2.30079404981
21161000000,-1.24403688935,-0.592864089627,-2.30504281257
21181000000,-1.24537820362,-0.591613434858,-2.30929155805
21201000000,-1.24671442205,-0.590356866111,-2.31354042535
21221000000,-1.24804557711,-0.589094466474,-2.31778955253
21241000000,-1.24937148669,-0.587826087524,-2.32203852942
21261000000,-1.25069223691,-0.586551870924,-2.32628763222
21281000000,-1.25200787816,-0.58527191679,-2.33053713297
21301000000,-1.25331826605,-0.583986101616,-2.33478663443
21321000000,-1.25462341116,-0.58269452492,-2.33903624618
21341000000,-1.25592331639,-0.581397209968,-2.34328612794
21361000000,-1.25721807002,-0.580094295293,-2.34753587085
21381000000,-1.25850736326,-0.578785513189,-2.35178601451
21401000000,-1.25979123078,-0.577470948382,-2.35603602179
21421000000,-1.261069721,-0.576150682894,-2.36028633126
21441000000,-1.26234291142,-0.574824869098,-2.36453687024
21461000000,-1.26361061758,-0.573493335871,-2.36878876983
21481000000,-1.26487295381,-0.57215628182,-2.37303957337
21501000000,-1.26612986655,-0.570813673541,-2.37729038784
21521000000,-1.26738137181,-0.569465573359,-2.38154134187
21541000000,-1.26862725624,-0.568111804017,-2.385792582
21562000000,-1.26986751698,-0.56675245763,-2.3900438323
21581000000,-1.27110230127,-0.565387684779,-2.39429533504
21601000000,-1.27233164161,-0.564017562355,-2.39854816018
21621000000,-1.27355524139,-0.56264186241,-2.40279994935
21641000000,-1.27477310075,-0.561260632558,-2.40705162292
21661000000,-1.27598529875,-0.559873990151,-2.41130344262
21684000000,-1.27719194572,-0.558482077067,-2.41555566566
21701000000,-1.27839283865,-0.557084755723,-2.41980790688
21721000000,-1.27958807494,-0.55568213912,-2.42406043505
21741000000,-1.28077747083,-0.554274148404,-2.42831283613
21761000000,-1.28196119365,-0.552860947468,-2.4325656491
21781000000,-1.28313932472,-0.551442625056,-2.43681838267
21801000000,-1.28431140274,-0.550018890562,-2.44106359681
21821000000,-1.28547769558,-0.548589972552,-2.44531686306
21842000000,-1.28663814944,-0.547155875913,-2.44957015869
21858000000,-1.28663814944,-0.547155875913,-2.44957015869
21881000000,-1.28894125107,-0.544272081989,-2.45807721575
21901000000,-1.29008387363,-0.54282245109,-2.4623308546
21921000000,-1.29122067186,-0.541367823584,-2.46658489927
21941000000,-1.29235145529,-0.539908087987,-2.47083897821
21961000000,-1.29347630725,-0.538443336561,-2.47509335166
21981000000,-1.29459506012,-0.536973515753,-2.47934761756
22001000000,-1.29570786922,-0.535498765031,-2.48360229794
22021000000,-1.29681484012,-0.534019207441,-2.4878568966
22041000000,-1.2979154335,-0.532534471558,-2.49211166016
22061000000,-1.29901002642,-0.531044888227,-2.4963668307
22081000000,-1.30009843449,-0.529550359243,-2.50062204475
22101000000,-1.30118077705,-0.528051015034,-2.50487754531
22121000000,-1.30225684986,-0.526546745502,-2.50913297129
22141000000,-1.30332685828,-0.525037742473,-2.51338880552
22161000000,-1.30439056578,-0.523523874232,-2.51764456855
22182000000,-1.30439056578,-0.523523874232,-2.51764456855
22201000000,-1.30649932537,-0.520481876896,-2.52615684394
22221000000,-1.3075444536,-0.518953873976,-2.53041313241
22241000000,-1.30858326726,-0.517421179009,-2.53466980696
22261000000,-1.30961584696,-0.515883864551,-2.53892654406
22281000000,-1.30961584696,-0.515883864551,-2.53892654406
22301000000,-1.31166203873,-0.512795359852,-2.54744054541
22321000000,-1.31267553175,-0.511244169823,-2.55169792597
22341000000,-1.31368245589,-0.509688298076,-2.55595513508
22361000000,-1.31468312788,-0.508127978371,-2.56021298818
22381000000,-1.31475632301,-0.508009952029,-2.5605085832
22401000000,-1.31476030539,-0.508007312157,-2.56066954525
22421000000,-1.31391200745,-0.507106246601,-2.56137346764
22441000000,-1.3129463876,-0.50609912939,-2.56351331354
22461000000,-1.31200954198,-0.505112061085,-2.56415883211
22481000000,-1.3110399223,-0.504104867646,-2.56491413169
22501000000,-1.31005735309,-0.503090548608,-2.56566939539
22521000000,-1.30908608226,-0.502084954096,-2.56642463523
22541000000,-1.30908077674,-0.502081509016,-2.56642463051
22561000000,-1.30713591871,-0.500072589791,-2.56793504267
22581000000,-1.30615458239,-0.499064319412,-2.56869019245
22601000000,-1.30518015292,-0.498061816583,-2.569445321
22621000000,-1.30419975037,-0.497056762473,-2.5702004093
22641000000,-1.3032237252,-0.496055828423,-2.57095547598
22661000000,-1.30224350545,-0.495053496243,-2.57171050175
22681000000,-1.30126364071,-0.494052692344,-2.5724654959
22701000000,-1.30028522604,-0.49305411381,-2.57322046816
22721000000,-1.29930601677,-0.492056320104,-2.57397540868
22741000000,-1.29832449391,-0.491058342948,-2.57473030739
22761000000,-1.29734264347,-0.49006145153,-2.57548517398
22781000000,-1.29636105242,-0.48906601756,-2.5762400188
22801000000,-1.2953782514,-0.488071105713,-2.57699482635
22821000000,-1.2953782514,-0.488071105713,-2.57699482635
22841000000,-1.29341045165,-0.48608375999,-2.57850434513
22861000000,-1.29242518023,-0.485091153976,-2.57925905063
22881000000,-1.29143963261,-0.484099662118,-2.58001373497
22901000000,-1.29045329566,-0.483108960151,-2.5807683871
22921000000,-1.28946574732,-0.482118783168,-2.58152299577
22943000000,-1.28847746837,-0.481129434142,-2.58227757184
22961000000,-1.2874887668,-0.48014110587,-2.58303212719
22982000000,-1.28649911185,-0.47915346569,-2.58378664428
23001000000,-1.28550881188,-0.478166764094,-2.58454114628
23021000000,-1.28451740281,-0.477180665641,-2.58529536961
23041000000,-1.28352536268,-0.476195388662,-2.58604791606
23061000000,-1.28253273376,-0.475211028107,-2.58680231017
23081000000,-1.28153927919,-0.474227436609,-2.58755666486
23101000000,-1.28054490068,-0.473244605661,-2.58831100467
23121000000,-1.27954992278,-0.472262640884,-2.58906528692
23139000000,-1.27954992278,-0.472262640884,-2.58906528692
23161000000,-1.27755737412,-0.470300933358,-2.59056280437
23181000000,-1.27655986268,-0.469321235488,-2.59131698886
23201000000,-1.27556176024,-0.468342452229,-2.5920711542
23221000000,-1.27456257758,-0.46736428359,-2.59282527337
23241000000,-1.2735629173,-0.466387099114,-2.59357937363
23261000000,-1.27256217575,-0.465410529632,-2.59433342739
23281000000,-1.27156096016,-0.464434946249,-2.59508746239
23301000000,-1.27055868052,-0.463459989331,-2.59584145045
23321000000,-1.26955563223,-0.462485839322,-2.59659540543
23341000000,-1.26855208839,-0.461512661938,-2.59734934225
23361000000,-1.26754763024,-0.46054020306,-2.59810323889
23380000000,-1.26754763024,-0.46054020306,-2.59810323889
23401000000,-1.26553652968,-0.458597780228,-2.59961094095
23421000000,-1.26452960908,-0.45762764884,-2.60036473119
23441000000,-1.26352219784,-0.456658492482,-2.60111850378
23461000000,-1.26251373982,-0.455689976762,-2.6018722279
23481000000,-1.2615047861,-0.454722432792,-2.60262593461
23501000000,-1.26049477694,-0.453755525197,-2.60337959245
23521000000,-1.25948400661,-0.452789430686,-2.60413321701
23542000000,-1.25847270796,-0.451824351433,-2.60488681795
23561000000,-1.25746055453,-0.450859965515,-2.60564038973
23581000000,-1.25644772187,-0.449896441986,-2.60639392431
23601000000,-1.25543412929,-0.448933783604,-2.60714745201
23621000000,-1.25441961193,-0.447971799572,-2.60789977405
23641000000,-1.25441961193,-0.447971799572,-2.60789977405
23661000000,-1.25238846447,-0.446050357843,-2.60939650765
23681000000,-1.25137151942,-0.445090722332,-2.61014986543
23701000000,-1.25035412817,-0.444132086538,-2.61090320759
23721000000,-1.24933582025,-0.443174173636,-2.61165650776
23741000000,-1.24831674876,-0.442217073959,-2.61240977463
23761000000,-1.24724539307,-0.441212707753,-2.61319952942
23781000000,-1.24627621932,-0.440305311634,-2.61391621029
23801000000,-1.24525501555,-0.439350752878,-2.61466938469
23821000000,-1.24423284138,-0.438396879707,-2.61542250861
23841000000,-1.24321008633,-0.437443989629,-2.61617561101
23861000000,-1.24218633558,-0.436491715733,-2.61692867355
23881000000,-1.24116202941,-0.435540377452,-2.61768169824
23901000000,-1.24013703623,-0.434589898005,-2.61843470745
23921000000,-1.23911112998,-0.433640146896,-2.61918767329
23941000000,-1.23808458869,-0.432691347389,-2.61994060835
23961000000,-1.23705700942,-0.431743142008,-2.62069350263
23981000000,-1.23602895911,-0.430795983085,-2.62144637173
24001000000,-1.23500007659,-0.429849599688,-2.62219919212
24021000000,-1.23397057105,-0.428904049711,-2.62295198662
24041000000,-1.23294029627,-0.427959312582,-2.62370476204
24061000000,-1.23190919635,-0.427015356298,-2.62445749242
24081000000,-1.23082494583,-0.426024635333,-2.6252466828
24101000000,-1.22984467066,-0.425129924539,-2.62596286328
24121000000,-1.22881022767,-0.424187828568,-2.62671548259
24141000000,-1.22777619792,-0.423247209521,-2.62746808799
24161000000,-1.2267418515,-0.422307659574,-2.6282206359
24181000000,-1.22570597903,-0.421368557993,-2.62897314526
24201000000,-1.22466971327,-0.420430419877,-2.6297256547
24221000000,-1.2236326212,-0.419493126249,-2.63047810843
24241000000,-1.22352193246,-0.419396318343,-2.63055327143
24261000000,-1.22352568284,-0.419393650982,-2.63055654718
24281000000,-1.20513542432,-0.407888858257,-2.63298841824
24301000000,-1.18537597296,-0.395630003597,-2.63548570528
24321000000,-1.16638383084,-0.383860722705,-2.63728808449
24341000000,-1.16638383084,-0.383860722705,-2.63728808449
24362000000,-1.1466188895,-0.37172860141,-2.63978454656
24381000000,-1.10672468457,-0.347467594858,-2.6447758184
