%time,field.x,field.y,field.theta
2781000000,2.02638426459,-0.146337069757,-0.123106687321
2801000000,2.03814619338,-0.14814229579,-0.124010233416
2821000000,2.04990607409,-0.149958139365,-0.124903563311
2841000000,2.06166430161,-0.151784648583,-0.125806747438
2861000000,2.07342109997,-0.153622403596,-0.126710280498
2881000000,2.08517613042,-0.15547025083,-0.127613611744
2901000000,2.09692950443,-0.157329322184,-0.128516962198
2921000000,2.10868123394,-0.159198498387,-0.129420442831
2941000000,2.12043115735,-0.16107887922,-0.130323946821
2961000000,2.13217928833,-0.162969346937,-0.131212977437
2981000000,2.14392578568,-0.164870487142,-0.132116447344
3001000000,2.15567007051,-0.166782216866,-0.133008695001
3021000000,2.16741290679,-0.168704636823,-0.133911977493
3041000000,2.17915408734,-0.170637719411,-0.13481542493
3061000000,2.19089326847,-0.172581969839,-0.135718702443
3081000000,2.20263086147,-0.174536333223,-0.136622125546
3101000000,2.21436648623,-0.176501872729,-0.137525213057
3121000000,2.22610044837,-0.178477515467,-0.13842862027
3141000000,2.23783275154,-0.180463824567,-0.139331681679
3161000000,2.24956303935,-0.182460745622,-0.140235082059
3181000000,2.2612914837,-0.184468301419,-0.141138129837
3201000000,2.27301779043,-0.186486449431,-0.142041170237
3221000000,2.28474250222,-0.18851526646,-0.142944548216
3241000000,2.28474237757,-0.188515248547,-0.1429443757
3261000000,2.3081860482,-0.192604750056,-0.144750936682
3281000000,2.31990509786,-0.194665447014,-0.145654292284
3301000000,2.33162198185,-0.196737281312,-0.146557305587
3321000000,2.34333721347,-0.198819217557,-0.147460638452
3341000000,2.34408300705,-0.198924744174,-0.147459044271
3361000000,2.34458275881,-0.199003165052,-0.147609112385
3381000000,2.33465603511,-0.198641998066,-0.150109209777
3401000000,2.32344924792,-0.19817344854,-0.15280570015
3421000000,2.31265529601,-0.197737184491,-0.154662860127
3441000000,2.30134083378,-0.19719119902,-0.157359384956
3461000000,2.29013714403,-0.196631926472,-0.160055790689
3481000000,2.29005157092,-0.196618069433,-0.160055845284
3501000000,2.26764939068,-0.195408105255,-0.165448696529
3521000000,2.25631634982,-0.194734749782,-0.16814525741
3541000000,2.24503211517,-0.194038490774,-0.170841843023
3561000000,2.23383791581,-0.193326897855,-0.173538360093
3581000000,2.22261334228,-0.192579206116,-0.176234936818
3601000000,2.21139314852,-0.191801443929,-0.178931527458
3621000000,2.20020544528,-0.190998795721,-0.181628091334
3639000000,2.20014758784,-0.190988141225,-0.181628172701
3661000000,2.17777956654,-0.189290211346,-0.1870213499
3681000000,2.16654348371,-0.188385871443,-0.189718033437
3701000000,2.15531179323,-0.187451314811,-0.192414733337
3721000000,2.14413660983,-0.186496870481,-0.195111368875
3741000000,2.13293796137,-0.185506912667,-0.197808055985
3761000000,2.12176833541,-0.184491904388,-0.200504717263
3781000000,2.11055031544,-0.183436068451,-0.203201465829
3801000000,2.09938659271,-0.182360462408,-0.205898141249
3821000000,2.08817712611,-0.181244283484,-0.208594912776
3842000000,2.07697787897,-0.180099141369,-0.211291695949
3861000000,2.06582395756,-0.178931187125,-0.213988407296
3881000000,2.05464079958,-0.177727406853,-0.216685209468
3901000000,2.04349328786,-0.176500470693,-0.219381939336
3918000000,2.04349328786,-0.176500470693,-0.219381939336
3941000000,2.02118747002,-0.173949735069,-0.224775514165
3961000000,2.01004307045,-0.172630496439,-0.22747231514
3981000000,1.99890996315,-0.171282847629,-0.230169083211
4001000000,1.98776979407,-0.169902482139,-0.232865941767
4021000000,1.97664437096,-0.168494542877,-0.235562725167
4041000000,1.96551596928,-0.167054799365,-0.238259597097
4061000000,1.95439855151,-0.165586620685,-0.240956393596
4081000000,1.94328083309,-0.164087245808,-0.243653277048
4101000000,1.93216927099,-0.162556693735,-0.246350162326
4121000000,1.92106483398,-0.160996779372,-0.24904697402
4141000000,1.90996344608,-0.159408027445,-0.251743834126
4161000000,1.89886745335,-0.157789465399,-0.254440655056
4181000000,1.8877745974,-0.156140499091,-0.257137559396
4201000000,1.87668774039,-0.154461869522,-0.25983438588
4221000000,1.86560496766,-0.152751499723,-0.262531297401
4241000000,1.85452756933,-0.151012852948,-0.265228126032
4261000000,1.84345478617,-0.149242585442,-0.267925037857
4282000000,1.84345478617,-0.149242585442,-0.267925037857
4301000000,1.82132415768,-0.145615285567,-0.273318783784
4321000000,1.81026705439,-0.143755304755,-0.276015614662
4341000000,1.79921446555,-0.141866775794,-0.278712528825
4361000000,1.79921446555,-0.141866775794,-0.278712528825
4381000000,1.77712593319,-0.137998620553,-0.284106273807
4401000000,1.76608947056,-0.136020400753,-0.286803179528
4421000000,1.75505863985,-0.134012342172,-0.28950000581
4441000000,1.74403376531,-0.131972954628,-0.292196866258
4461000000,1.73301458404,-0.129903734085,-0.294893731335
4481000000,1.72200072696,-0.127806130235,-0.297590545816
4501000000,1.71099266867,-0.125678702377,-0.300287436601
4521000000,1.69999045777,-0.123521456091,-0.302984322019
4541000000,1.6889947487,-0.121333001885,-0.305681122552
4561000000,1.67800464016,-0.119116220575,-0.308377960342
4581000000,1.66702068313,-0.116869687113,-0.311074751955
4601000000,1.66702068715,-0.11686968841,-0.311074829374
4621000000,1.64507193676,-0.11228597773,-0.316468477341
4641000000,1.63410688422,-0.109950281303,-0.319165241575
4661000000,1.6231482994,-0.10758490235,-0.321862041836
4681000000,1.6231482994,-0.10758490235,-0.321862041836
4701000000,1.601250797,-0.10276514359,-0.32725557897
4721000000,1.5903120458,-0.100310801099,-0.329952391031
4741000000,1.57938009962,-0.0978268514606,-0.332649117278
4761000000,1.56845548175,-0.0953118661165,-0.335345907143
4781000000,1.55753736294,-0.092768751876,-0.338042689981
4801000000,1.54662624024,-0.0901960676187,-0.340739384671
4821000000,1.53572219706,-0.0875938350572,-0.343436105138
4841000000,1.52482535557,-0.0849620886371,-0.346132775923
4861000000,1.51393574016,-0.082300827868,-0.348829509114
4881000000,1.50305347503,-0.0796100884661,-0.351526228959
4901000000,1.49217865244,-0.0768898951041,-0.354222860839
4921000000,1.48131132518,-0.0741402581104,-0.356919515983
4937000000,1.48131132518,-0.0741402581104,-0.356919515983
4961000000,1.4595994769,-0.0685527355257,-0.362312782431
4981000000,1.44875564333,-0.0657134763357,-0.365009431823
5001000000,1.43791964615,-0.0628448634188,-0.367705986391
5021000000,1.42709103186,-0.0599483363996,-0.370402566249
5041000000,1.41627038189,-0.0570224866626,-0.373099128222
5061000000,1.41627038189,-0.0570224866626,-0.373099128222
5081000000,1.39465323649,-0.0510828883657,-0.378492199001
5102000000,1.38385696694,-0.0480692105236,-0.381188671142
5121000000,1.37306895404,-0.0450262895625,-0.383885197266
5141000000,1.36228932064,-0.0419541655952,-0.386581704001
5161000000,1.35151815806,-0.0388528665797,-0.389278119289
5181000000,1.34021684343,-0.0355647412124,-0.392108083161
5201000000,1.33000187227,-0.0325615537712,-0.394671007333
5221000000,1.319256291,-0.0293709738743,-0.397367352994
5241000000,1.30852065324,-0.026153568514,-0.400063719699
5261000000,1.29779290859,-0.0229066957106,-0.402760031217
5281000000,1.28707408681,-0.0196307808793,-0.40545639145
5301000000,1.27636422633,-0.0163258310867,-0.408152728307
5321000000,1.26566347353,-0.0129919001508,-0.410848971679
5341000000,1.25497186302,-0.00962899390347,-0.413545226549
5361000000,1.24429009759,-0.00623576343993,-0.41624146213
5381000000,1.24429009759,-0.00623576343993,-0.41624146213
5401000000,1.22295336665,0.000634668460952,-0.421633845625
5421000000,1.21229913893,0.00411321099745,-0.424330035463
5441000000,1.20165447849,0.00762058663848,-0.427026130449
5461000000,1.20165446717,0.00762059179771,-0.427026164807
5481000000,1.18039408772,0.0147217705377,-0.432418275521
5501000000,1.16977851058,0.0183155273265,-0.43511435874
5521000000,1.15917280092,0.0219380166566,-0.437810345876
5541000000,1.14857699921,0.0255892290582,-0.440506372821
5561000000,1.13799121663,0.0292691216842,-0.443202370747
5583000000,1.12741553363,0.0329776657066,-0.445898272142
5601000000,1.11685001195,0.0367148410172,-0.448594177581
5621000000,1.10629473297,0.0404806179313,-0.451290019523
5641000000,1.09574974823,0.0442749810364,-0.453985897849
5661000000,1.08521516833,0.0480978859649,-0.456681744783
5681000000,1.07469107328,0.0519493027816,-0.459377494126
5701000000,1.06417752455,0.0558292105238,-0.46207324465
5721000000,1.05367460309,0.0597375783876,-0.464768929983
5741000000,1.04318236023,0.0636743902427,-0.467464648201
5761000000,1.03270090592,0.0676396002112,-0.470160332782
5781000000,1.02223031978,0.0716331772579,-0.472855918693
5801000000,1.01177066295,0.0756550995694,-0.475551502904
5821000000,1.00132201595,0.0797053352301,-0.478247020266
5842000000,0.990885123659,0.0837852087274,-0.480942568425
5861000000,0.980458716627,0.0878919848041,-0.483638078491
5881000000,0.970043550198,0.0920269831221,-0.486333489516
5901000000,0.959639685091,0.0961901805148,-0.489028895985
5921000000,0.949247207222,0.100381540924,-0.491724265587
5941000000,0.938866205452,0.104601026308,-0.494419566396
5961000000,0.928496730516,0.108848618893,-0.497114892326
5981000000,0.918138862259,0.113124285087,-0.499810179596
6001000000,0.907793429636,0.117429302325,-0.502505367402
6021000000,0.897459037435,0.121761000128,-0.505200544877
6041000000,0.88713649067,0.126120669832,-0.507895652765
6061000000,0.876826581757,0.13050960772,-0.510590783308
6081000000,0.866527931412,0.134925133295,-0.513285871618
6101000000,0.856241362067,0.139368527896,-0.515980858429
6121000000,0.845966912754,0.143839778173,-0.518675864377
6141000000,0.835704701667,0.148338826389,-0.521370798231
6161000000,0.825454785066,0.152865649769,-0.524065659977
6181000000,0.815217224915,0.157420222222,-0.526760508942
6201000000,0.8049921174,0.162002497533,-0.529455285044
6221000000,0.794779512566,0.166612456112,-0.532150076902
6241000000,0.78457949125,0.171250060437,-0.534844823652
6261000000,0.774392157007,0.175915258938,-0.537539467058
6283000000,0.76421755139,0.180608035713,-0.540234094748
6301000000,0.754055770176,0.185328344173,-0.542928647603
6321000000,0.743906827769,0.190076185679,-0.545623208314
6341000000,0.733770813168,0.194851514256,-0.548317717168
6361000000,0.723648702939,0.199655512972,-0.551012134748
6382000000,0.713538877858,0.204485641873,-0.553706525532
6401000000,0.703442274438,0.209343109269,-0.556400845927
6421000000,0.702314804165,0.209900374727,-0.556621966326
6441000000,0.701913301921,0.210145187132,-0.557469240219
6461000000,0.704090039834,0.209417464415,-0.556244804835
6481000000,0.706516904208,0.208596067666,-0.554956025345
6501000000,0.708970732867,0.207761766622,-0.553639119308
6521000000,0.711431546875,0.206927368418,-0.55257806317
6541000000,0.713887698626,0.20609966343,-0.551261129091
6561000000,0.716533712851,0.205192498985,-0.549879954689
6581000000,0.718930930958,0.204376531773,-0.548626595992
6601000000,0.721390645356,0.203558924235,-0.547309587849
6621000000,0.723880948398,0.202726732488,-0.545992407922
6641000000,0.726342954511,0.201915760145,-0.544675359423
6661000000,0.728862669471,0.201074174467,-0.543357985244
6681000000,0.731380160144,0.200237919442,-0.542040590502
6701000000,0.733969203147,0.199395566244,-0.540659538743
6722000000,0.736461341938,0.198583105003,-0.539342248009
6741000000,0.738830032747,0.197815706893,-0.538088869374
6761000000,0.741298895754,0.197024857067,-0.536771672934
6781000000,0.743934199571,0.196171901302,-0.53539021545
6801000000,0.746281570692,0.195428637998,-0.534136931866
6821000000,0.74878138731,0.194631537957,-0.532819377882
6841000000,0.751273222379,0.193843160609,-0.531501801488
6861000000,0.751273222379,0.193843160609,-0.531501801488
6881000000,0.756229328244,0.192294729964,-0.528867052539
6901000000,0.758705873271,0.191527282346,-0.527549715601
6921000000,0.761192494373,0.190757918063,-0.526232059097
6941000000,0.763671173934,0.189997126808,-0.524914686359
6961000000,0.766156495273,0.189236452868,-0.523596988584
6981000000,0.768640787066,0.188480333498,-0.522279269851
7001000000,0.771122734776,0.187729706416,-0.520961835858
7021000000,0.773606875746,0.1869815673,-0.519644228852
7041000000,0.776090835289,0.18623747044,-0.518326754324
7061000000,0.77857757139,0.1854957288,-0.517008953769
7081000000,0.781063610891,0.184758316157,-0.515691438983
7101000000,0.783551786535,0.184023623937,-0.514373597992
7122000000,0.786040584187,0.183292508526,-0.513055736711
7141000000,0.788529710176,0.182565131388,-0.511738162216
7161000000,0.788529956951,0.182564992998,-0.511738008736
7181000000,0.793511263646,0.181120282007,-0.509102800717
7201000000,0.796003787144,0.180402755062,-0.507784860252
7221000000,0.798496965444,0.179688775174,-0.506467207528
7241000000,0.800991372597,0.178978022445,-0.505149228001
7261000000,0.803486696316,0.178270668835,-0.503831228927
7281000000,0.806107983276,0.177530138188,-0.502449546251
7301000000,0.808479093704,0.176866864266,-0.501195489199
7321000000,0.810977247043,0.176169677729,-0.499877735966
7341000000,0.813477501579,0.175475216419,-0.498559811821
7361000000,0.815977624102,0.174784719396,-0.497241871853
7381000000,0.818478693962,0.174097596806,-0.495924067694
7401000000,0.82098076952,0.173413815993,-0.494605936177
7421000000,0.823483872373,0.172733558118,-0.493287786007
7441000000,0.8259878281,0.172056528144,-0.49196992684
7461000000,0.828492743787,0.171382861377,-0.490651894696
7484000000,0.83099860124,0.170712566292,-0.489333999365
7501000000,0.833505418609,0.170045632127,-0.488015776397
7521000000,0.836013167796,0.169382072701,-0.486697535218
7541000000,0.838521844325,0.168721889226,-0.485379586474
7561000000,0.841031460554,0.168065074071,-0.484061464901
7581000000,0.843542072537,0.167411789445,-0.482743325827
7601000000,0.846053527909,0.166761728601,-0.481425324658
7621000000,0.848565900704,0.166115044544,-0.480106995378
7641000000,0.851079194318,0.165471734285,-0.47878864859
7661000000,0.853593388441,0.164831807252,-0.477470595934
7681000000,0.856108564942,0.1641954121,-0.476152370612
7702000000,0.858624640667,0.163562398455,-0.474834284181
7721000000,0.861141533607,0.162932615799,-0.473515869
7741000000,0.863659330396,0.16230621036,-0.47219743664
7761000000,0.866177999717,0.161683196883,-0.470879300031
7781000000,0.868697520294,0.161063584972,-0.469560835078
7801000000,0.871217948177,0.160447345075,-0.468242665816
7821000000,0.873739223958,0.15983450615,-0.466924324302
7841000000,0.876261392522,0.159225044462,-0.465606122785
7861000000,0.878784374214,0.15861899886,-0.464287592861
7881000000,0.881308217067,0.158016344061,-0.46296904673
7901000000,0.883832962966,0.157417058173,-0.461650797633
7921000000,0.886358559089,0.156821166483,-0.4603325329
7942000000,0.888884952025,0.156228694221,-0.459013939572
7961000000,0.891412198843,0.155639611915,-0.457695330396
7981000000,0.893940319006,0.155053908899,-0.456377020037
8001000000,0.896469231494,0.154471623907,-0.4550585376
8021000000,0.898998867669,0.153892789185,-0.453739882966
8041000000,0.901529546254,0.153317439632,-0.452421524449
8061000000,0.904060885145,0.152745378688,-0.451102836257
8081000000,0.906593123145,0.152176681084,-0.449784447404
8101000000,0.909126201296,0.151611374702,-0.448465882403
8121000000,0.911660104703,0.15104941842,-0.447147396595
8141000000,0.914194828522,0.150491096722,-0.445828951245
8161000000,0.916730940233,0.149935714691,-0.444510171965
8181000000,0.919267185001,0.149384053598,-0.443191697324
8201000000,0.921805338828,0.148835269766,-0.441872897819
8221000000,0.924343221122,0.148290583864,-0.440554400865
8241000000,0.926882017934,0.147749053925,-0.439235580469
8260000000,0.926881898696,0.147749109857,-0.439235422656
8281000000,0.931961340951,0.14667650681,-0.436598215828
8301000000,0.934502047277,0.146145401645,-0.435279514344
8321000000,0.937043701663,0.145617623982,-0.433960958179
8341000000,0.939585651608,0.145093474567,-0.432642072716
8361000000,0.939585443571,0.145093570483,-0.432641914477
8381000000,0.944672311205,0.144055189989,-0.430004579468
8401000000,0.947216797012,0.143541156503,-0.428685813552
8421000000,0.949762182573,0.143030468957,-0.427367193079
8441000000,0.952308090211,0.142523490787,-0.426048232494
8461000000,0.954854823306,0.142019885382,-0.424729268807
8481000000,0.957402392738,0.141519460242,-0.423410618336
8501000000,0.959950735941,0.141022438193,-0.422091790033
8521000000,0.96249974004,0.140528865772,-0.42077310753
8541000000,0.965049434038,0.140038916111,-0.419454092191
8561000000,0.967599760671,0.139552237236,-0.418135068321
8581000000,0.970150988493,0.139068898333,-0.41681619027
8601000000,0.972702806245,0.138589035561,-0.415497458942
8621000000,0.975255318254,0.13811260151,-0.414178556398
8641000000,0.977808583111,0.137639761788,-0.412859788818
8661000000,0.980362372134,0.137170225825,-0.411540595325
8681000000,0.980362348887,0.137170235953,-0.411539375347
8701000000,0.985472250264,0.136241343139,-0.408901649689
8721000000,0.988156322793,0.135757659949,-0.407518679264
8741000000,0.990584772,0.135326369573,-0.406263882957
8761000000,0.993140665543,0.134874562645,-0.404944738158
8781000000,0.995699785866,0.134425255224,-0.403625579653
8801000000,0.998258320844,0.133979727373,-0.402306736789
8821000000,1.00081749116,0.133537643418,-0.400987721623
8841000000,1.00337745655,0.133098934165,-0.399668695451
8861000000,1.00593791554,0.132663725844,-0.398349818829
8881000000,1.00849899171,0.132231964985,-0.397030611496
8901000000,1.01106067781,0.131803839034,-0.395711391339
8921000000,1.01362302366,0.1313789541,-0.394392485687
8941000000,1.01618596423,0.130957523375,-0.393073407747
8961000000,1.01874954208,0.130539527401,-0.391754480207
8981000000,1.02131389327,0.130124909261,-0.390435221994
9001000000,1.02387866586,0.129714004398,-0.389115737133
9021000000,1.02644405922,0.129306340413,-0.387796791579
9041000000,1.02901006247,0.12890230802,-0.386475850242
9061000000,1.03157678204,0.128501672714,-0.385156714097
9081000000,1.03414401553,0.128104517691,-0.383837726193
9101000000,1.03671177059,0.127710649176,-0.382518736786
9122000000,1.03928052677,0.127320063781,-0.381199251728
9141000000,1.04184965942,0.126933009405,-0.379879917746
9161000000,1.04441913261,0.126549498193,-0.378560896896
9181000000,1.04698909083,0.126169470876,-0.37724170602
9201000000,1.04955950452,0.125792937647,-0.375922345118
9221000000,1.05213072,0.125419952447,-0.374603282078
9241000000,1.05470226304,0.125050311564,-0.373282451834
9261000000,1.05470226304,0.125050311564,-0.373282451834
9281000000,1.0598474076,0.12432142572,-0.370644155033
9301000000,1.06242070377,0.123962107293,-0.369324915812
9321000000,1.06499462674,0.123606402145,-0.368005811682
9341000000,1.06756912844,0.123253938133,-0.366686282532
9361000000,1.07014403988,0.122904982206,-0.36536718084
9381000000,1.07271959956,0.122559620518,-0.36404664212
9401000000,1.07271955117,0.122559638921,-0.364046480153
9421000000,1.07787180255,0.121879236536,-0.361408081407
9441000000,1.08044775807,0.121544522284,-0.360088783491
9461000000,1.08302521573,0.121212869311,-0.358769643012
9481000000,1.08560444336,0.120884387196,-0.357450166055
9501000000,1.08818273259,0.120559718485,-0.356130688444
9521000000,1.09076166529,0.120238456357,-0.354811527029
9541000000,1.09334130439,0.119920759071,-0.353492194039
9561000000,1.0959211977,0.119606425166,-0.352173021023
9581000000,1.09850149574,0.119295583028,-0.350853514729
9601000000,1.10108232787,0.118988183053,-0.349534326712
9621000000,1.10366376584,0.118684198412,-0.348214807017
9641000000,1.10366376584,0.118684198412,-0.348214807017
9661000000,1.10882755096,0.118086799844,-0.345576074148
9681000000,1.11141012258,0.117793302071,-0.344256698528
9701000000,1.11399322627,0.11750324228,-0.342937480009
9721000000,1.11657660215,0.117216711995,-0.341617929522
9741000000,1.11916063524,0.116933755352,-0.340298697256
9761000000,1.12174490432,0.116654155219,-0.338979137421
9781000000,1.12432974407,0.116377976779,-0.337659896623
9801000000,1.12691521323,0.116105380624,-0.336340320177
9821000000,1.12950089127,0.115836145898,-0.335021071312
9841000000,1.13208698474,0.115570573288,-0.333701471074
9861000000,1.13467335436,0.115308324477,-0.332380431824
9881000000,1.13726025897,0.115049510009,-0.331061167166
9901000000,1.1398477371,0.114794110927,-0.329741732976
9921000000,1.14243548537,0.114542411062,-0.328422455206
9941000000,1.14502350197,0.114294045437,-0.327102849532
9961000000,1.14530468661,0.114259509969,-0.326996129688
9981000000,1.14531442454,0.114251950867,-0.326970009605
10001000000,1.14606338034,0.11385297716,-0.327092008393
10021000000,1.14682679116,0.113435102822,-0.327505851894
10041000000,1.14755712416,0.113028064553,-0.327893957934
10061000000,1.14832016646,0.11260953082,-0.328307816412
10081000000,1.14905910651,0.112198813599,-0.328721340862
10101000000,1.14982177918,0.11177962231,-0.329135191824
10121000000,1.15057258807,0.111364085881,-0.329548712157
10141000000,1.15057258807,0.111364085881,-0.329548712157
10161000000,1.15208984557,0.110526488377,-0.330376080882
10181000000,1.15284723744,0.110107518952,-0.330789601628
10201000000,1.15360895737,0.109686666577,-0.331203451269
10221000000,1.15436887468,0.109266033836,-0.331617137641
10241000000,1.15513020966,0.10884451362,-0.332030989157
10261000000,1.15588903806,0.108423438208,-0.33244451047
10281000000,1.15664999058,0.108001248499,-0.332858367024
10301000000,1.15740929395,0.107579209967,-0.333271891424
10321000000,1.15816928876,0.107156550433,-0.33368542287
10341000000,1.15892964747,0.106733345815,-0.334099278243
10361000000,1.15968958086,0.106309905907,-0.334512812528
10381000000,1.16044956295,0.105886048858,-0.334926673975
10401000000,1.16120924134,0.105461876841,-0.335340206401
10421000000,1.16196883675,0.105037350804,-0.335754073287
10441000000,1.16272809551,0.104612541551,-0.336167775593
10461000000,1.16348733413,0.104187337859,-0.336581315599
10481000000,1.16424634191,0.103761813216,-0.336995184734
10501000000,1.16500491172,0.103336040299,-0.337408728263
10521000000,1.16576352921,0.102909849043,-0.337822600713
10541000000,1.16652183476,0.102483365516,-0.338236311163
10561000000,1.16728006147,0.102056507871,-0.338650186969
10581000000,1.16803809259,0.101629317119,-0.339064064473
10601000000,1.16811874624,0.101593451649,-0.339083127381
10621000000,1.16814584446,0.1015795183,-0.339132826637
10641000000,1.15799188252,0.103652128874,-0.342407303485
10661000000,1.14659068829,0.106058765943,-0.345814107149
10681000000,1.13515030644,0.108523144671,-0.349340683158
10701000000,1.12414928976,0.110869645455,-0.351792193309
10721000000,1.11272613974,0.113413571168,-0.355318710475
10741000000,1.10124761771,0.116022211993,-0.358845670084
10761000000,1.08984379602,0.11864915461,-0.362372153818
10781000000,1.07839368096,0.121335697038,-0.365899148616
10801000000,1.06695686484,0.124061600252,-0.36942591123
10821000000,1.05558136053,0.126808008401,-0.372952316256
10842000000,1.04416353602,0.129615386167,-0.376479211311
10861000000,1.03280808219,0.132442476437,-0.380005567314
10881000000,1.02146282974,0.135309762549,-0.383531898132
10901000000,1.01008194002,0.13823790372,-0.387058692192
10921000000,0.998757581673,0.141185633172,-0.390584971041
10941000000,0.987397804163,0.144192644395,-0.39411150093
10961000000,0.976051284569,0.147239037556,-0.397638163665
10981000000,0.964759360555,0.150307230014,-0.4011643596
11001000000,0.953457823578,0.153426157926,-0.404690732701
11021000000,0.942188981173,0.156576214707,-0.408216854996
11041000000,0.930893078166,0.159780717082,-0.411744062646
11061000000,0.919646305493,0.163008746867,-0.415270128928
11081000000,0.908383040314,0.166289124627,-0.418804310344
11101000000,0.897159696722,0.169596821521,-0.422330314294
11121000000,0.885930034995,0.172952523843,-0.425856603849
11141000000,0.874719049501,0.176345016939,-0.42938284788
11161000000,0.863528642505,0.179775622136,-0.432908890707
11181000000,0.852353796544,0.183242073413,-0.436434755373
11201000000,0.84118814904,0.186749614631,-0.439960629052
11221000000,0.830038367852,0.19029513523,-0.443486423527
11241000000,0.818896916952,0.193882235471,-0.447012418989
11261000000,0.807772756665,0.197506651433,-0.45053813695
11281000000,0.796102782644,0.201356197952,-0.454238986371
11301000000,0.785561554204,0.204876553226,-0.457589761102
11321000000,0.774473999095,0.20862067209,-0.461115529126
11341000000,0.763402857586,0.212402256736,-0.464641281951
11361000000,0.752346087093,0.216224921076,-0.468166798384
11381000000,0.741301734895,0.22008507162,-0.471692351932
11401000000,0.730271598683,0.223984121187,-0.475217775663
11421000000,0.719255066106,0.227922405117,-0.478743249246
11441000000,0.708253032467,0.231899481332,-0.482268582629
11461000000,0.69726506264,0.235915597383,-0.485794010109
11481000000,0.686292639147,0.239972315999,-0.489319253743
11501000000,0.675333661911,0.244066120655,-0.492844563351
11521000000,0.664389481961,0.248198640716,-0.496369704827
11541000000,0.653460177244,0.252369853773,-0.499894859459
11561000000,0.642546816117,0.256581538408,-0.503419974335
11581000000,0.631647458032,0.26083009443,-0.506944961361
11601000000,0.620763317103,0.265117220938,-0.510469930509
11621000000,0.609894524572,0.269442865784,-0.513994816002
11641000000,0.59904247906,0.273808618967,-0.517519713022
11661000000,0.588204790545,0.278211134381,-0.521044487106
11681000000,0.577382933714,0.282651958704,-0.524569269626
11701000000,0.566577174234,0.287130957853,-0.528093996131
11721000000,0.55578716032,0.291648359102,-0.531618606024
11741000000,0.545013366862,0.296203907264,-0.535143188224
11761000000,0.534255808827,0.300797615454,-0.538667682503
11781000000,0.523514800208,0.305429317977,-0.542192176791
11801000000,0.512790234979,0.310099100608,-0.545716552373
11821000000,0.502082477904,0.314806764444,-0.549240925858
11841000000,0.491391561897,0.319552310604,-0.552765237388
11861000000,0.480718565966,0.324337509719,-0.556289433791
11882000000,0.470061669774,0.329158678961,-0.559813616491
11901000000,0.459421925428,0.33401760597,-0.563337681307
11921000000,0.44879972439,0.338914064884,-0.566861710576
11941000000,0.43819483781,0.343848223456,-0.57038564674
11961000000,0.427607774871,0.34881977792,-0.573909573066
11981000000,0.417038403421,0.353828834947,-0.577433432039
12001000000,0.406486795857,0.358875371338,-0.580957168578
12021000000,0.395954396417,0.363960918983,-0.584480868982
12041000000,0.385438965205,0.369082057039,-0.588004464921
12061000000,0.374941911055,0.374240338072,-0.591528048465
12081000000,0.364463478534,0.37943561775,-0.595051561214
12101000000,0.354003298351,0.384668168921,-0.598574949907
12121000000,0.34356302752,0.389939372061,-0.602098297784
12141000000,0.333140331152,0.395245870751,-0.605621538385
12161000000,0.322736660848,0.400589181597,-0.609144760894
12181000000,0.312351971811,0.405969357865,-0.612667857736
12201000000,0.30198676947,0.411386066271,-0.616190930989
12210000000,0.30198676947,0.411386066271,-0.616190930989
12242000000,0.281314020906,0.42232973763,-0.623236798334
12261000000,0.271008155183,0.427858071406,-0.626759621254
12281000000,0.260721940989,0.433422911098,-0.630282334961
12301000000,0.250454433667,0.439022423827,-0.633805289287
12321000000,0.240208042983,0.444659965063,-0.637327843432
12341000000,0.229980900865,0.450331819328,-0.64085307197
12361000000,0.219775040015,0.456041623019,-0.644377932392
12381000000,0.20958809886,0.461786037789,-0.647900244458
12401000000,0.19942166563,0.467566462523,-0.65142250089
12421000000,0.189275975636,0.473382739282,-0.654944674484
12441000000,0.179150847384,0.479235030891,-0.658466741474
12461000000,0.169047992702,0.485124632527,-0.661988774374
12481000000,0.158964700627,0.491048474511,-0.665510668078
12501000000,0.1489025853,0.497007925549,-0.669032523863
12521000000,0.138861635706,0.503003017091,-0.672554248795
12541000000,0.128842306551,0.509033409717,-0.676075930258
12561000000,0.118844314505,0.515099352955,-0.679597522885
12581000000,0.108867811061,0.521200750665,-0.683118983924
12601000000,0.0989130896501,0.527337388879,-0.686640376547
12621000000,0.0889801722133,0.5335092735,-0.690161657936
12641000000,0.0790693327489,0.539716202211,-0.693682889821
12661000000,0.0691804954828,0.54595826187,-0.697203988679
12681000000,0.0593138830964,0.552235291239,-0.700724995194
12701000000,0.0494697728531,0.558547079557,-0.704245969006
12721000000,0.0396480817081,0.564893720432,-0.707766827762
12741000000,0.0298489263796,0.571275139345,-0.711287572084
12761000000,0.0200724368334,0.577691249717,-0.714808202074
12781000000,0.0103188373132,0.584141881538,-0.718328755047
12801000000,0.000588139931026,0.590627048618,-0.721849192499
12821000000,-0.00911937896051,0.597146532124,-0.725369569715
12841000000,-0.0188038005167,0.603700428377,-0.728889811792
12861000000,-0.0284648049488,0.610288476941,-0.732409991288
12881000000,-0.0381024692682,0.616910771568,-0.735930035163
12901000000,-0.0477164698473,0.623567044328,-0.739450013999
12921000000,-0.0573068979741,0.630257403082,-0.742969856855
12941000000,-0.0668734335862,0.636981579294,-0.746489632224
12961000000,-0.0764160468208,0.643741076686,-0.750009304817
12981000000,-0.0859347285724,0.650532897236,-0.753528840655
13001000000,-0.0954291922168,0.657358306593,-0.75704828922
13021000000,-0.104899450486,0.664217341208,-0.760567617265
13041000000,-0.114345237455,0.671109773484,-0.76408687185
13061000000,-0.123766602485,0.67803567587,-0.767605989117
13081000000,-0.133163248967,0.684994787819,-0.771125030479
13101000000,-0.142535253056,0.69198720858,-0.774643934189
13121000000,-0.151882308002,0.69901266395,-0.778162759568
13141000000,-0.152946632865,0.699857569233,-0.778560672693
13161000000,-0.152948075073,0.699852412749,-0.77856585776
13181000000,-0.157979900796,0.703738524713,-0.781410587316
13201000000,-0.163286031932,0.707810768322,-0.783360442878
13221000000,-0.168365108564,0.711674712054,-0.784835499288
13241000000,-0.173655950517,0.715768836528,-0.786785252225
13261000000,-0.178885086712,0.719819394356,-0.788734964235
13281000000,-0.184160287032,0.723933775545,-0.790684588016
13301000000,-0.189405273982,0.728036136849,-0.792634176437
13321000000,-0.194664228852,0.732171233678,-0.794583679292
13341000000,-0.199899573897,0.736300897995,-0.796533143829
13361000000,-0.205132105306,0.740446303221,-0.79848254542
13381000000,-0.210366524712,0.744612364299,-0.80043186028
13401000000,-0.215589136985,0.748785034392,-0.802381124028
13421000000,-0.220807070655,0.752971680377,-0.804330312913
13441000000,-0.226011601087,0.757163250326,-0.806279461969
13461000000,-0.231212971518,0.761370411056,-0.808228524379
13481000000,-0.236402745204,0.76558436141,-0.810177546194
13501000000,-0.241587468725,0.769811973595,-0.812126481514
13521000000,-0.246761721933,0.774047550413,-0.814075375377
13541000000,-0.251929716778,0.778295549454,-0.816024182919
13561000000,-0.257087937481,0.782552247606,-0.817972948083
13581000000,-0.262238217912,0.786819597612,-0.819921648316
13601000000,-0.267380970035,0.791098053033,-0.821870262797
13621000000,-0.272514453145,0.795386709714,-0.823818827337
13641000000,-0.277640277045,0.799685388791,-0.82576730861
13661000000,-0.282757140855,0.803993646708,-0.827715747969
13681000000,-0.287865956939,0.808312479172,-0.829664102169
13701000000,-0.29296575213,0.812640828751,-0.831612410696
13721000000,-0.298056729886,0.816979898559,-0.833561554668
13741000000,-0.303139894252,0.82132883224,-0.835509722424
13761000000,-0.308214362877,0.82568765833,-0.837466062563
13781000000,-0.313280322332,0.830056581289,-0.839414087773
13801000000,-0.318336993911,0.834435714008,-0.841362068776
13821000000,-0.323385189936,0.838824990226,-0.843309961316
13841000000,-0.328425104111,0.843223651779,-0.845257799502
13861000000,-0.333456429351,0.847632339151,-0.847205556195
13881000000,-0.33847874293,0.852050577656,-0.849153263179
13901000000,-0.343492487033,0.856478872362,-0.85110090206
13921000000,-0.348497638098,0.860917202829,-0.853048456885
13941000000,-0.353493982377,0.865365329708,-0.854995951693
13961000000,-0.358481090713,0.869823768464,-0.856943359191
13983000000,-0.363459824924,0.874291495913,-0.858891812486
14001000000,-0.368429809021,0.87876910577,-0.860839095161
14021000000,-0.373390819686,0.883256335536,-0.862796033176
14041000000,-0.378343000744,0.887753356144,-0.864743191861
14061000000,-0.383286412224,0.89226024314,-0.866690267222
14081000000,-0.388220895932,0.896776815467,-0.868637280006
14101000000,-0.393146498124,0.901303132091,-0.870584216396
14121000000,-0.398063111771,0.905839070443,-0.872531096169
14141000000,-0.402970830072,0.910384745773,-0.874477892856
14161000000,-0.407869023322,0.914940430738,-0.876424626486
14181000000,-0.412758784878,0.919505391761,-0.878371286906
14201000000,-0.417639482469,0.924079904173,-0.880320701629
14221000000,-0.422511210257,0.92866408314,-0.882267216846
14241000000,-0.427373832937,0.933257768719,-0.88421367228
14261000000,-0.43222745463,0.93786109216,-0.886160045388
14281000000,-0.437071950414,0.942473905275,-0.88810635772
14301000000,-0.441907392505,0.947096301189,-0.890052588013
14321000000,-0.446733668148,0.951728145368,-0.891998756486
14341000000,-0.451550350753,0.956369951527,-0.893944847081
14361000000,-0.456358344733,0.961020768652,-0.895890867856
14381000000,-0.461157102145,0.965680959126,-0.897836818263
14401000000,-0.465946775743,0.970350718929,-0.899782688076
14421000000,-0.470727188978,0.975029831062,-0.901728489386
14441000000,-0.475498428404,0.979718409339,-0.903674213841
14461000000,-0.480260372149,0.984416303827,-0.90561987283
14481000000,-0.485251047033,0.989359816168,-0.907661481369
14501000000,-0.485530118856,0.989654335552,-0.907726525143
14521000000,-0.485697581595,0.989861728041,-0.908222150194
14541000000,-0.490655035046,0.991446032118,-0.915126881983
14561000000,-0.496148762084,0.993326248963,-0.922266705925
14581000000,-0.501639113882,0.995257387211,-0.929703786737
14601000000,-0.506975478618,0.997040428466,-0.934489534022
14621000000,-0.512437157251,0.999052904195,-0.941926076074
14641000000,-0.517875568043,1.00109553413,-0.949385154777
14661000000,-0.523305904701,1.00318978827,-0.956821069612
14681000000,-0.528717240548,1.00532066973,-0.964277529681
14701000000,-0.534114968548,1.00749624341,-0.971712824548
14721000000,-0.539494234222,1.00970977059,-0.97916616606
14741000000,-0.544858135085,1.01196616783,-0.986600838647
14761000000,-0.550203556537,1.01426107929,-0.994051343727
14781000000,-0.55553167076,1.01659659956,-1.00149949562
14801000000,-0.56084257678,1.01897325501,-1.00893322241
14821000000,-0.566134930172,1.02138926774,-1.01637295634
14841000000,-0.57140900822,1.02384542225,-1.02380604195
14861000000,-0.576663782159,1.02634036886,-1.03125005549
14881000000,-0.581899854168,1.02887545654,-1.03868249053
14901000000,-0.587116155607,1.03144923066,-1.0461240367
14921000000,-0.592313048741,1.03406267023,-1.05355581154
14941000000,-0.597489659046,1.03671460479,-1.0609949372
14961000000,-0.602646210062,1.03940579712,-1.06842604212
14981000000,-0.602646000186,1.03940541286,-1.06843202059
15001000000,-0.612896824686,1.04490410852,-1.0832975292
15021000000,-0.617990702612,1.04771076842,-1.0907276082
15041000000,-0.623063030513,1.05055543073,-1.09815891072
15061000000,-0.628113698762,1.05343827007,-1.10558829516
15081000000,-0.633140561403,1.05635949121,-1.11301978005
15101000000,-0.638146901849,1.0593178504,-1.12044847766
15121000000,-0.643130548622,1.06231351183,-1.12789467726
15141000000,-0.648091424754,1.06534671301,-1.1353226469
15161000000,-0.65302909045,1.06841693251,-1.14275159083
15181000000,-0.657941740488,1.07152503261,-1.150178846
15201000000,-0.657941622192,1.07152476642,-1.15017966849
15221000000,-0.667697037851,1.07784942753,-1.16503363612
15241000000,-0.672779398263,1.08122833168,-1.17283201973
15261000000,-0.67735436263,1.08432221814,-1.17988575868
15281000000,-0.682145670006,1.08761254602,-1.18731111342
15301000000,-0.686913762956,1.09093804835,-1.19473635873
15321000000,-0.691656534333,1.09429922916,-1.20216100987
15341000000,-0.696373697652,1.09769583455,-1.2095853457
15361000000,-0.701063347859,1.10112848017,-1.21700924436
15381000000,-0.705728505493,1.10459532845,-1.22443269752
15401000000,-0.710365685533,1.10809799776,-1.23185581634
15420000000,-0.710365661103,1.10809792792,-1.23185624034
15441000000,-0.71956160944,1.11520653116,-1.24670548147
15461000000,-0.724119891729,1.11881216469,-1.25412743188
15481000000,-0.72865077237,1.12245186167,-1.26154896338
15501000000,-0.733154031484,1.12612551316,-1.26897013019
15521000000,-0.737627601273,1.12983319771,-1.27639084394
15541000000,-0.742073102655,1.1335745793,-1.28381120638
15561000000,-0.746491909015,1.13734852683,-1.29123111335
15581000000,-0.750882136832,1.14115570782,-1.29865068146
15601000000,-0.750882091319,1.1411555432,-1.29865061272
15621000000,-0.759575622144,1.14886797035,-1.31348846113
15641000000,-0.763878509628,1.15277303577,-1.32090681025
15661000000,-0.76815177359,1.15671017183,-1.32832471254
15681000000,-0.772395234847,1.16067938912,-1.3357422406
15701000000,-0.776608579977,1.16468013506,-1.34315927898
15721000000,-0.780791673172,1.16871260389,-1.35057597924
15741000000,-0.784944232428,1.17277635677,-1.35799226313
15761000000,-0.789064178924,1.17687124603,-1.36540799867
15781000000,-0.793154973191,1.18099679342,-1.37283191604
15801000000,-0.797214555644,1.18515299282,-1.3802468981
15821000000,-0.801242678183,1.18933946519,-1.38766145629
15841000000,-0.805239150772,1.19355615056,-1.39507563477
15861000000,-0.809203716166,1.19780260963,-1.40248934197
15881000000,-0.813136190291,1.20207880983,-1.40990266738
15901000000,-0.817230676908,1.20659958781,-1.41768683639
15921000000,-0.820902178466,1.2107180673,-1.42472788885
15941000000,-0.824736803323,1.21508175612,-1.43213986815
15961000000,-0.828536999595,1.21947520886,-1.43955141209
15981000000,-0.832305703095,1.22389593452,-1.44696259226
16001000000,-0.836039192077,1.22834490423,-1.45438137302
16021000000,-0.839739093867,1.23282186629,-1.46179216616
16041000000,-0.843407019392,1.23732633322,-1.46920202818
16064000000,-0.847039131108,1.24185843644,-1.4766169039
16081000000,-0.850638847177,1.24641745715,-1.48402587831
16101000000,-0.854204156586,1.25100332901,-1.49143430321
16121000000,-0.857734870023,1.25561586979,-1.4988423954
16141000000,-0.861230780801,1.2602546389,-1.50624992995
16161000000,-0.864691715211,1.26491966504,-1.51365713253
16181000000,-0.868117463745,1.26961036074,-1.52106377165
16201000000,-0.87150784971,1.27432666733,-1.5284699597
16221000000,-0.874862689789,1.27906844703,-1.53587581947
16241000000,-0.878181788361,1.28383514134,-1.54328110567
16261000000,-0.881464970526,1.2886267577,-1.55068606502
16281000000,-0.884712050415,1.2934428327,-1.55809050959
16301000000,-0.887922850839,1.29828320733,-1.56549456458
16321000000,-0.891097194644,1.30314743375,-1.57289803701
16341000000,-0.894234908244,1.30803537408,-1.58030105169
16361000000,-0.897335817034,1.3129468414,-1.58770374316
16381000000,-0.900399753628,1.31788135808,-1.59510584271
16401000000,-0.903426545147,1.3228388427,-1.60250762081
16421000000,-0.906416029564,1.32781886225,-1.60990887189
16441000000,-0.909368038434,1.33282125047,-1.61730973337
16461000000,-0.912282416705,1.33784558023,-1.62470999462
16481000000,-0.915157181399,1.34289165642,-1.63210992776
16501000000,-0.917995812836,1.34795920262,-1.63950947597
16521000000,-0.920796337558,1.35304791456,-1.64691019285
16542000000,-0.923558592572,1.35815762762,-1.65430875022
16561000000,-0.926282437349,1.36328791368,-1.6617067694
16581000000,-0.928967716026,1.36843855943,-1.66910440012
16601000000,-0.931612483866,1.37360898999,-1.67650141619
16621000000,-0.934220200073,1.37879941755,-1.68389811652
16641000000,-0.936788917617,1.38400929662,-1.69129419696
16661000000,-0.939318504964,1.38923827838,-1.69868980835
16682000000,-0.941808809255,1.39448618718,-1.70608511313
16701000000,-0.944259707192,1.3997526339,-1.71347987036
16721000000,-0.946671054289,1.4050373993,-1.72087424144
16741000000,-0.949042733745,1.41034008949,-1.72826798038
16761000000,-0.951374596144,1.41566052919,-1.73566141615
16781000000,-0.953666530966,1.42099830551,-1.74305421593
16801000000,-0.955918379387,1.42635322916,-1.75044671562
16821000000,-0.958130224565,1.43172494754,-1.75783883032
16841000000,-0.960323121656,1.43711408455,-1.76524090044
16861000000,-0.96250053603,1.44252060391,-1.772655684
16881000000,-0.962500507933,1.44252073955,-1.77265534069
16901000000,-0.966809027457,1.45338522537,-1.78752312869
16921000000,-0.968930645467,1.45884265887,-1.79497519665
16941000000,-0.971013518954,1.46431527782,-1.80242523987
16961000000,-0.973055181423,1.46980308992,-1.80991327485
16981000000,-0.975055616182,1.47530546101,-1.81736335604
17001000000,-0.977014725663,1.48082204776,-1.82485911162
17021000000,-0.977014755772,1.4808219329,-1.82488132623
17041000000,-0.980806824089,1.49189689161,-1.83980338725
17061000000,-0.982639532926,1.4974534421,-1.8472748435
17081000000,-0.984432033896,1.50302479809,-1.85472494616
17101000000,-0.986182132573,1.50861070748,-1.86221647044
17121000000,-0.987890742252,1.51420746535,-1.86966656044
17141000000,-0.989557481335,1.51981579187,-1.87715662611
17161000000,-0.991181838239,1.52543670854,-1.88460668675
17181000000,-0.992764010428,1.53106899653,-1.89209515774
17201000000,-0.994302050006,1.53671215372,-1.89958205881
17221000000,-0.995799359931,1.54236694277,-1.90703204695
17241000000,-0.997254151177,1.5480323987,-1.91449975957
17261000000,-0.998666351327,1.5537081818,-1.92194968524
17281000000,-1.00003589521,1.55939394274,-1.92943421552
17301000000,-1.00136267617,1.56508944841,-1.93688406268
17321000000,-1.00264664678,1.57079431365,-1.94436703713
17341000000,-1.00388771947,1.576508264,-1.95181679162
17362000000,-1.00508583771,1.58223095107,-1.95929821688
17381000000,-1.00508185622,1.58256857691,-1.95982271323
17401000000,-1.00508699468,1.58256866123,-1.95982791359
17421000000,-1.0033434512,1.59699106041,-1.96888568375
17441000000,-1.00106930495,1.61331051718,-1.98107746173
17461000000,-0.998678696537,1.62951443118,-1.9908336838
17481000000,-0.996421869565,1.64505473511,-1.99681007683
17501000000,-0.993690217373,1.66127602053,-2.00663791248
17521000000,-0.990830292959,1.67740480419,-2.016393848
17541000000,-0.987785161364,1.69356019745,-2.02621905634
17561000000,-0.987785161364,1.69356019745,-2.02621905634
17581000000,-0.981263732675,1.72569082771,-2.04576384336
17601000000,-0.977774005786,1.7416935077,-2.05551930078
17621000000,-0.974101247767,1.75770991647,-2.06533928817
17641000000,-0.970298526242,1.77364026368,-2.07509447176
17661000000,-0.966313213134,1.78957958162,-2.08491118562
17681000000,-0.962198985386,1.80543149648,-2.09466607333
17701000000,-0.957902688134,1.82128770272,-2.10447959207
17721000000,-0.953478560333,1.83705511743,-2.11423416127
17741000000,-0.948873100012,1.85282200489,-2.12404454211
17761000000,-0.944114002502,1.86854110589,-2.1338519983
17781000000,-0.939228099418,1.88417033684,-2.14360604486
17802000000,-0.934189474847,1.89975068762,-2.1533598969
17821000000,-0.928972280141,1.91531959123,-2.1631640626
17841000000,-0.923608455884,1.9308276379,-2.1729653552
17862000000,-0.918113986691,1.94625194089,-2.18271861663
17881000000,-0.912461035031,1.9616322584,-2.19249460575
17901000000,-0.906659318402,1.97695398123,-2.20226973635
17921000000,-0.900708010948,1.99220472984,-2.2120223615
17941000000,-0.894604632774,2.00741300652,-2.22181748258
17961000000,-0.888362035025,2.02254835094,-2.23156965087
17982000000,-0.88195939957,2.03762451141,-2.24136228131
18001000000,-0.875421706391,2.052634153,-2.25111397153
18021000000,-0.868727439245,2.0675787462,-2.26090367926
18041000000,-0.86189719497,2.08245696832,-2.27065487456
18061000000,-0.861894657538,2.08245996812,-2.2706946591
18081000000,-0.847793867948,2.11200707113,-2.29019650097
18101000000,-0.846901209574,2.11360411244,-2.29095122083
18121000000,-0.840544246637,2.1266586121,-2.3000081441
18141000000,-0.832725143663,2.14170112329,-2.31370602062
18161000000,-0.825171066834,2.15622145721,-2.32345588052
18182000000,-0.817925639707,2.17019361022,-2.32944167427
18201000000,-0.81009021117,2.18457053378,-2.33921300354
18221000000,-0.80211721076,2.1988670199,-2.348961997
18242000000,-0.793997050507,2.21309212931,-2.35872096458
18261000000,-0.785733450043,2.22723042653,-2.3684790836
18280000000,-0.785733450043,2.22723042653,-2.3684790836
18301000000,-0.768807244346,2.25526802053,-2.38799337095
18321000000,-0.760144329682,2.26915605584,-2.39774079206
18341000000,-0.751339092317,2.28296458523,-2.40750360194
18361000000,-0.742405984313,2.29667994149,-2.41725036196
18382000000,-0.742401550754,2.29668384927,-2.41726404415
18401000000,-0.724131874038,2.32385081536,-2.43676827516
18421000000,-0.71479997283,2.33729739389,-2.44651400522
18441000000,-0.705335886575,2.35065268431,-2.45626466082
18461000000,-0.695742616757,2.36391369259,-2.46600968061
18481000000,-0.686018511436,2.37708121865,-2.47576414625
18502000000,-0.676167554141,2.39015159735,-2.48550843635
18524000000,-0.676166565267,2.39015235572,-2.48551744928
18541000000,-0.666187826335,2.40312580701,-2.49526565778
18561000000,-0.645852319733,2.4287759127,-2.51475650692
18581000000,-0.635497210092,2.44145034395,-2.52450328599
18601000000,-0.625018810171,2.45402254203,-2.53424566791
18621000000,-0.614417893277,2.46649147734,-2.54398765406
18641000000,-0.614417444659,2.46649178148,-2.54399881068
18661000000,-0.592851959469,2.49111523028,-2.56348829132
18681000000,-0.581885394835,2.50326082877,-2.57322906325
18701000000,-0.570804638763,2.51530497737,-2.58297259241
18721000000,-0.559606563388,2.52724002367,-2.5927158356
18741000000,-0.548292297545,2.53906480593,-2.60245535192
18761000000,-0.536862797647,2.55077827641,-2.61220017162
18781000000,-0.525319308481,2.56237923266,-2.62193882853
18801000000,-0.513662840971,2.57386662871,-2.63168238613
18821000000,-0.501894555542,2.5852393485,-2.64142016979
18841000000,-0.490015587817,2.59649630557,-2.65116244249
18861000000,-0.478027014822,2.60763646298,-2.66089932786
18881000000,-0.465930066297,2.61865872225,-2.67064023977
18901000000,-0.453722307793,2.62955519747,-2.68038049405
18921000000,-0.441411945417,2.64033861222,-2.69011601126
18941000000,-0.428996668859,2.65100103831,-2.6998529748
18961000000,-0.416477655821,2.66154147498,-2.70958755872
18981000000,-0.40385612379,2.67195891305,-2.71932602898
19001000000,-0.391133254772,2.68225237572,-2.72905966362
19021000000,-0.378310275036,2.69242088193,-2.7387970647
19041000000,-0.365388420403,2.70246346367,-2.74852973347
19061000000,-0.352365949204,2.71237204421,-2.75826601315
19081000000,-0.339250039987,2.72215994768,-2.76800107483
19101000000,-0.326039002792,2.73181909685,-2.77773226878
19121000000,-0.312734073954,2.74134859287,-2.7874647201
19141000000,-0.312734073954,2.74134859287,-2.7874647201
19161000000,-0.285847697142,2.76001500421,-2.80692782189
19181000000,-0.272268812222,2.76915015403,-2.81665700046
19201000000,-0.258598687864,2.77814480758,-2.82638849809
19221000000,-0.244843632779,2.78701272455,-2.83611664882
19241000000,-0.231000121085,2.79573839556,-2.84584641025
19261000000,-0.217074164714,2.80433571361,-2.855575348
19282000000,-0.203064732242,2.81279650535,-2.86530193123
19301000000,-0.188973179416,2.82111997149,-2.87502904769
19321000000,-0.174800839252,2.82930532901,-2.88475457025
19341000000,-0.160549084074,2.83735179956,-2.89448153791
19361000000,-0.146219248973,2.84525862965,-2.90420598759
19381000000,-0.131812706526,2.85302507124,-2.91393167906
19401000000,-0.117330847623,2.86065038748,-2.92365504412
19421000000,-0.102775048049,2.86813386039,-2.93337944586
19441000000,-0.088146684779,2.8754747865,-2.94310309724
19461000000,-0.0734471711428,2.88267246992,-2.95282481425
19481000000,-0.0586764321831,2.88971866174,-2.96254597648
19501000000,-0.0438388062762,2.89662784893,-2.97226770401
19521000000,-0.028934254801,2.90339179418,-2.98198774885
19541000000,-0.0289342467065,2.90339179547,-2.98198820865
19563000000,0.00107114827986,2.91647382738,-3.00142734353
19581000000,0.0161679521403,2.92279830933,-3.01114569383
19601000000,0.0313270089373,2.92896744706,-3.02086344791
19621000000,0.046544798224,2.93499595286,-3.03058065653
19641000000,0.0618209156806,2.94087560903,-3.04029748129
19661000000,0.077153891436,2.9466058676,-3.05001353914
19681000000,0.0925422819642,2.95218619252,-3.05972927363
19701000000,0.107985258203,2.95760837822,-3.06944417223
19721000000,0.123480063927,2.96288728457,-3.07915853501
19741000000,0.139025857435,2.96801472333,-3.08887226638
19761000000,0.154621187515,2.97299022148,-3.09858527758
19781000000,0.170264534137,2.97781331193,-3.10829783408
19801000000,0.18595443594,2.98248354484,-3.11800966241
19821000000,0.201689384555,2.98700048341,-3.1277210368
19841000000,0.21746790038,2.9913637062,-3.13743167515
19861000000,0.233288467167,2.99557280603,3.13604344651
19879000000,0.233288476534,2.99557280596,3.13604359311
19901000000,0.265049777908,3.00352708206,3.11662516509
19921000000,0.280987486579,3.00727151811,3.10691677454
19942000000,0.29696123753,3.01086034967,3.09720914053
19961000000,0.312969477223,3.01429324505,3.08750195375
19981000000,0.329010713265,3.01756988383,3.07779553049
20001000000,0.345083767432,3.02071168422,3.06807989786
20021000000,0.361188242453,3.02377931916,3.05832730713
20041000000,0.378129709373,3.02684054514,3.0480851956
20061000000,0.393481752747,3.02944934477,3.03880155938
20081000000,0.40966791326,3.03204957066,3.02904584227
20101000000,0.411494163995,3.03223537722,3.02829104836
20121000000,0.412166470784,3.03216299156,3.02381970278
20141000000,0.410208390764,3.03450862067,3.01878312911
20161000000,0.408052779668,3.03708491246,3.01359825363
20181000000,0.405856139628,3.0396804965,3.00817439738
20201000000,0.40362922926,3.04229429153,3.00489481759
20221000000,0.401345546814,3.04493076123,2.99947140504
20241000000,0.399192367395,3.0475632781,2.99404767242
20261000000,0.397008150075,3.05021468294,2.98862414367
20281000000,0.394884116543,3.05287112144,2.98320048024
20301000000,0.392699166125,3.05555173406,2.9777772029
20321000000,0.390604622847,3.05823191987,2.97235361617
20341000000,0.388454730292,3.06093600687,2.96693041034
20361000000,0.386389932055,3.06363959182,2.96150689341
20381000000,0.384273988299,3.06636694028,2.95608375211
20401000000,0.382239184617,3.06909358154,2.95066029759
20421000000,0.38015717374,3.071843811,2.94523721348
20441000000,0.378052149625,3.07473211739,2.9395408202
20461000000,0.376104750417,3.07736647338,2.93439080238
20481000000,0.374130701182,3.08013827,2.92896743854
20501000000,0.372117305317,3.08293296077,2.92354445868
20521000000,0.370130013365,3.08573665751,2.91812149429
20541000000,0.368202168049,3.08854135528,2.9126982047
20561000000,0.366273697084,3.09136054541,2.90727509704
20581000000,0.364376906855,3.0941865518,2.90185183114
20601000000,0.362472616903,3.09702881367,2.89642891545
20621000000,0.360607117714,3.09987582456,2.89100568674
20641000000,0.358743103613,3.10273687742,2.88558277941
20661000000,0.356909107871,3.10560451883,2.8801595438
20681000000,0.355083113274,3.10848444139,2.87473664873
20701000000,0.353276044827,3.11137366638,2.86931375546
20721000000,0.351489704961,3.11427155755,2.8638905268
20741000000,0.349717462587,3.11717988712,2.8584674641
20761000000,0.347963154259,3.12009748107,2.85304423057
20781000000,0.346221995165,3.12302568228,2.84762132605
20801000000,0.344500136603,3.12596330847,2.84219807231
20821000000,0.342792252297,3.12891043929,2.83677515728
20841000000,0.341101117892,3.13186689422,2.83135222535
20861000000,0.339427815127,3.13483223779,2.82592894759
20881000000,0.33777040389,3.13780701557,2.82050582098
20901000000,0.336129859402,3.14079083497,2.81508251226
20921000000,0.334505189712,3.14378395795,2.80965951629
20941000000,0.3328976034,3.14678590039,2.80423616947
20961000000,0.331306244083,3.14979688556,2.79881313062
20981000000,0.329731811566,3.15281659421,2.79338973827
21002000000,0.328173870326,3.15584510925,2.78796664907
21022000000,0.326632971767,3.15888290236,2.78254352276
21041000000,0.325108624642,3.16192858455,2.7771200551
21061000000,0.323525615702,3.16513690008,2.77142343203
21081000000,0.322110461246,3.16804591332,2.76627335973
21101000000,0.320636660253,3.1711168471,2.76084976477
21121000000,0.319179705948,3.17419592334,2.75542648006
21141000000,0.317739893486,3.17728304575,2.75000315523
21161000000,0.31631697619,3.18037824143,2.74457946583
21181000000,0.314911451525,3.18348199346,2.73915587696
21201000000,0.313522737768,3.18659293568,2.73373300741
21221000000,0.312151129816,3.18971165089,2.72830918802
21241000000,0.310796993498,3.19283866343,2.72288530956
21261000000,0.309459693058,3.19597264459,2.71746845092
21281000000,0.308139654354,3.19911410673,2.71204480117
21301000000,0.306837052147,3.20226289142,2.70662077708
21321000000,0.305551871169,3.20541892853,2.70119685679
21341000000,0.304284098111,3.2085821485,2.69577287896
21361000000,0.303033674755,3.21175250454,2.69034868303
21381000000,0.301800877905,3.21492978759,2.68492474344
21401000000,0.300585435512,3.21811405485,2.67950042399
21421000000,0.299387667675,3.22130507277,2.67407635585
21441000000,0.298207357948,3.22450287399,2.66865190551
21461000000,0.297044776003,3.22770724573,2.6632277015
21481000000,0.295899746639,3.23091820192,2.65780311292
21501000000,0.294772500631,3.23413554594,2.6523787656
21521000000,0.293662974681,3.23735923371,2.6469543432
21541000000,0.292571133871,3.24058920799,2.64152953351
21562000000,0.291497120265,3.24382531515,2.63610480182
21581000000,0.29044091155,3.24706749009,2.63067983558
21601000000,0.2894026375,3.2503155826,2.62525509795
21621000000,0.288382194281,3.25356957339,2.61982996786
21641000000,0.28737973574,3.25682929676,2.61440506131
21661000000,0.286395234315,3.26009468983,2.60898006682
21681000000,0.285428680781,3.26336568006,2.60355467732
21701000000,0.284480170346,3.26664213255,2.59812935053
21721000000,0.283549698414,3.26992397101,2.59270377902
21741000000,0.282637351491,3.27321106336,2.58727841828
21761000000,0.281743080282,3.27650336033,2.58185265753
21781000000,0.280866987908,3.27980071798,2.57642710245
21801000000,0.280009063434,3.28310306272,2.57100144673
21821000000,0.279169307725,3.28641031401,2.56557538861
21841000000,0.278347797639,3.28972234176,2.56014937794
21861000000,0.277544522597,3.29303907193,2.55472311261
21881000000,0.276759553073,3.29636037663,2.54929704013
21902000000,0.275992863339,3.29968619153,2.54387056043
21921000000,0.275244533928,3.30301638028,2.53844441664
21941000000,0.274514529968,3.30635088462,2.53301771545
21961000000,0.273803321359,3.30969014937,2.52759118418
21981000000,0.273110093727,3.31303294473,2.52216426388
22001000000,0.272435612239,3.31638037591,2.51673735392
22021000000,0.271779258976,3.31973106735,2.51131019853
22041000000,0.271141088656,3.32308577446,2.50588320725
22061000000,0.270522117001,3.32644452861,2.50045579554
22081000000,0.269921112443,3.32980641768,2.49502879935
22101000000,0.269338884552,3.33317162409,2.48960360697
22121000000,0.268775099345,3.33654031233,2.48417582165
22141000000,0.268229934235,3.33991226153,2.47874805112
22162000000,0.268229934235,3.33991226153,2.47874805112
22181000000,0.267195412271,3.34666563708,2.4678922569
22201000000,0.26670602569,3.35004691498,2.46246394408
22221000000,0.266235331864,3.35343104933,2.45703577943
22241000000,0.265783249883,3.35681801844,2.4516071925
22261000000,0.265349844724,3.36020768197,2.44617846594
22281000000,0.265349889357,3.36020764475,2.44617874861
22301000000,0.264539170809,3.36699465047,2.4353208697
22321000000,0.264161922616,3.37039176003,2.42989199486
22341000000,0.263803400548,3.3737911672,2.42446297175
22361000000,0.263463601654,3.37719278531,2.41903352131
22381000000,0.263142580606,3.38059647641,2.41360405991
22401000000,0.262840318166,3.38400216691,2.40817430801
22421000000,0.262556864783,3.38740972048,2.40274467937
22441000000,0.262292185886,3.39081907689,2.39731461925
22461000000,0.262046344289,3.39423008657,2.39188467721
22481000000,0.261819312487,3.39764268223,2.3864545751
22501000000,0.261611087683,3.40105677401,2.38102404005
22521000000,0.261421699851,3.40447224049,2.37559334336
22541000000,0.261421719594,3.40447222151,2.37559361447
22561000000,0.261099506872,3.41130685183,2.36473199877
22581000000,0.260966678689,3.41472582981,2.35930080718
22601000000,0.260852731509,3.41814576077,2.35386958125
22621000000,0.260757645145,3.42156656893,2.34843805147
22641000000,0.260681456166,3.42498812087,2.34300661663
22662000000,0.260624134754,3.42841035002,2.33757474211
22681000000,0.260585720467,3.43183311804,2.33214295741
22701000000,0.260566199967,3.43525634044,2.3267109944
22721000000,0.260565559764,3.43867993308,2.32127859054
22741000000,0.260583832108,3.44210376245,2.31584613769
22763000000,0.26062100744,3.44552773879,2.31041350306
22781000000,0.260677595671,3.44895224374,2.30498054142
22801000000,0.260752574128,3.45237620834,2.2995476793
22821000000,0.260846455304,3.45580002327,2.29411436347
22841000000,0.260958974324,3.4592238848,2.28868111486
22861000000,0.261090711546,3.46264702801,2.28324767491
22881000000,0.261241316846,3.46606974684,2.27781378886
22901000000,0.261411400767,3.46949230296,2.27237982304
22921000000,0.261599831636,3.47291374852,2.2669456882
22942000000,0.261807144852,3.47633444545,2.26151122273
22961000000,0.262033131589,3.47975453865,2.25607680921
22981000000,0.262278295941,3.48317330625,2.25064219486
23001000000,0.262542293689,3.48659105887,2.24520713097
23021000000,0.262825225985,3.49000756242,2.23977198924
23041000000,0.263127589323,3.49342322352,2.2343366113
23063000000,0.263127589323,3.49342322352,2.2343366113
23081000000,0.263434421997,3.49716604961,2.22854548855
23101000000,0.263436596442,3.49717039988,2.22854148859
23121000000,0.265976513349,3.49976718196,2.21812890877
23141000000,0.268838381751,3.50249469538,2.21301931306
23161000000,0.268838381751,3.50249469538,2.21301931306
23181000000,0.274619880554,3.50790558288,2.19488254795
23201000000,0.277543931443,3.51057776691,2.18580762362
23221000000,0.280502381686,3.51320963998,2.17673259343
23241000000,0.283481267068,3.51582047931,2.16765720629
23261000000,0.286478364793,3.51841338426,2.1585812249
23281000000,0.286480400943,3.51841031767,2.15858133976
23301000000,0.292547989977,3.52351297004,2.14042838389
23321000000,0.295616199315,3.52602477054,2.13135126881
23341000000,0.298709925789,3.52850579579,2.12227398791
23361000000,0.301824276089,3.53096243317,2.1131961152
23381000000,0.304962604639,3.53338907588,2.1041180626
23401000000,0.308122366256,3.53578986391,2.09503937932
23421000000,0.311304794645,3.53816106794,2.08596007301
23441000000,0.314509292021,3.5405040913,2.07687729895
23466000000,0.317734726862,3.54281926168,2.06779741559
23481000000,0.320981801984,3.54510521018,2.05872222589
23501000000,0.324250033044,3.54736213942,2.04964159885
23521000000,0.327539176916,3.54958982263,2.04056054799
23541000000,0.330849100862,3.55178837561,2.03147895118
23561000000,0.334179360995,3.55395682727,2.02239715805
23581000000,0.337529504019,3.55609596765,2.01331491982
23601000000,0.337529504019,3.55609596765,2.01331491982
23621000000,0.344289612477,3.56028347276,1.99514882249
23641000000,0.344548190349,3.56045163202,1.9945200804
23661000000,0.347676754596,3.56231027054,1.98608029879
23681000000,0.351078138538,3.56434389699,1.97347312877
23701000000,0.354497867485,3.56631255978,1.96781125316
23721000000,0.357911457307,3.56826780965,1.95873162576
23741000000,0.361326511335,3.5701904724,1.94965435551
23761000000,0.364741819345,3.57208235551,1.94057947716
23781000000,0.368166029303,3.57394285516,1.93150611452
23801000000,0.371606870723,3.57577152746,1.92243381359
23822000000,0.375064261492,3.57756865289,1.9133612459
23841000000,0.378538306775,3.57933396966,1.9042893782
23861000000,0.382028187735,3.58106729264,1.89521783439
23881000000,0.385533916045,3.582768469,1.88614643539
23901000000,0.389055295562,3.58443704566,1.87707535612
23921000000,0.392591911234,3.58607325599,1.86800441896
23941000000,0.396143546788,3.5876767135,1.85893396811
