%time,field.x,field.y,field.theta
1861000000,-0.367090534351,0.219179669266,2.60099009762
1881000000,-0.365716975505,0.221331679909,2.59505193241
1901000000,-0.36433037464,0.22347580294,2.58911351071
1921000000,-0.36293076595,0.225611954182,2.58317468183
1941000000,-0.361518213045,0.227740067683,2.5772358976
1961000000,-0.360092742653,0.22986005436,2.57129685404
1981000000,-0.358654419544,0.231971849168,2.56535800047
2001000000,-0.357203277378,0.234075367127,2.55941873362
2021000000,-0.357203287398,0.234075373728,2.55941903249
2041000000,-0.35426276112,0.238257291275,2.54754015207
2061000000,-0.352773475076,0.240335540638,2.54160053422
2081000000,-0.351271583997,0.242405224917,2.53566124021
2101000000,-0.349757116295,0.244466254784,2.52972137768
2121000000,-0.348230138734,0.246518567392,2.52378183081
2141000000,-0.346690690574,0.248562080644,2.51784186127
2161000000,-0.345138830497,0.250596726156,2.51190161581
2181000000,-0.343574609368,0.252622430013,2.50596138422
2201000000,-0.341998079433,0.254639119273,2.50002087291
2221000000,-0.340409300474,0.256646726673,2.49408051564
2241000000,-0.338808311321,0.258645169132,2.48813973006
2261000000,-0.337195172633,0.260634379945,2.48219880421
2281000000,-0.335569937422,0.262614286641,2.4762581678
2301000000,-0.333932661882,0.264584819218,2.47031695514
2321000000,-0.333932661882,0.264584819218,2.47031724073
2341000000,-0.33062220652,0.268497475629,2.45843465751
2361000000,-0.328949137473,0.270439458125,2.45249299906
2381000000,-0.327264256467,0.272371789578,2.44655132906
2401000000,-0.325567603487,0.274294386463,2.44060950377
2421000000,-0.323859244935,0.276207187141,2.43466738096
2441000000,-0.322139237141,0.278110121623,2.42872537926
2462000000,-0.320407637741,0.280003120989,2.42278293662
2481000000,-0.318664504772,0.281886116647,2.41684060913
2501000000,-0.316909896671,0.283759040333,2.41089783853
2521000000,-0.315143872277,0.285621824115,2.40495517708
2541000000,-0.313366490825,0.287474400392,2.39901207041
2561000000,-0.311577811948,0.289316701899,2.39306906694
2581000000,-0.309777895672,0.291148661708,2.38712561613
2604000000,-0.307966802416,0.292970213232,2.38118226257
2621000000,-0.306144592989,0.294781290224,2.37523872996
2641000000,-0.304311328589,0.296581826782,2.36929474796
2661000000,-0.302467070803,0.298371757352,2.36335071936
2683000000,-0.300611881601,0.300151016726,2.3574063733
2701000000,-0.298745823337,0.301919540049,2.35146184223
2721000000,-0.298745823337,0.301919540049,2.35146224254
2741000000,-0.29498135095,0.305424120885,2.33957261757
2761000000,-0.293083063435,0.307160050462,2.33362791557
2781000000,-0.291174160074,0.308884988117,2.32768275587
2801000000,-0.28925470511,0.310598870783,2.32173727047
2821000000,-0.28925470511,0.310598870783,2.32173740088
2841000000,-0.285384399209,0.313993220696,2.30984596799
2861000000,-0.283433678612,0.315673563636,2.30389988675
2881000000,-0.281472667089,0.317342602976,2.29795386132
2901000000,-0.279501430727,0.31900027749,2.29200737326
2921000000,-0.277520035972,0.320646526326,2.28606093516
2941000000,-0.275528549632,0.32228128901,2.28011403269
2961000000,-0.2735270454,0.323904513147,2.27416717433
2981000000,-0.271515577702,0.32551612366,2.26821984991
3001000000,-0.269494220986,0.327116068879,2.26227256378
3021000000,-0.267463043482,0.32870428986,2.25632480993
3041000000,-0.26542211377,0.330280728043,2.25037708852
3061000000,-0.263371500779,0.331845325259,2.24442914564
3081000000,-0.261311273782,0.333398023732,2.23848073373
3101000000,-0.259241502399,0.334938766078,2.23253234453
3121000000,-0.25716225659,0.336467495308,2.22658348474
3141000000,-0.255073606655,0.337984154832,2.22063452033
3161000000,-0.252975623234,0.339488688459,2.21468520539
3181000000,-0.2508683773,0.340981040401,2.20873590269
3201000000,-0.248751940161,0.342461155272,2.20278612538
3221000000,-0.246626383455,0.343928978093,2.19683635455
3241000000,-0.244491779152,0.345384454291,2.19088610772
3261000000,-0.242348199545,0.346827529704,2.1849358617
3281000000,-0.242348199545,0.346827529704,2.1849358617
3301000000,-0.238034405224,0.349676263586,2.17303440993
3321000000,-0.235864336717,0.351081815797,2.16708320289
3341000000,-0.233685590928,0.352474763097,2.16113198529
3361000000,-0.231498230476,0.353855036659,2.15518028768
3381000000,-0.229302335235,0.355222593175,2.14922857384
3401000000,-0.227097979727,0.356577381403,2.14327637879
3421000000,-0.227097979727,0.356577381403,2.14327660821
3441000000,-0.222664188764,0.35924845024,2.13137146221
3461000000,-0.22043785715,0.360564690669,2.12541846911
3481000000,-0.218208649911,0.361867998815,2.11946480026
3501000000,-0.215976641332,0.363158224572,2.11351100149
3521000000,-0.213741919233,0.364435254384,2.10755699773
3541000000,-0.211504817252,0.365699398661,2.10160234472
3562000000,-0.211504763823,0.36569930756,2.10160255402
3581000000,-0.207023469045,0.368188041124,2.08969292057
3601000000,-0.204779972932,0.369413347592,2.08373809123
3621000000,-0.202533905964,0.370624422811,2.07778300347
3641000000,-0.200285234385,0.371820915351,2.07182864835
3661000000,-0.198035348606,0.37300509894,2.06587372285
3681000000,-0.195783709563,0.374175754586,2.0599189736
3701000000,-0.193530396677,0.375332775658,2.05396522201
3721000000,-0.191275569596,0.376476209194,2.04801127978
3741000000,-0.189019310512,0.377605957138,2.04205743981
3761000000,-0.186761722711,0.378721961839,2.03610429971
3781000000,-0.184502084966,0.379824168435,2.03015169665
3801000000,-0.18223649684,0.380912584563,2.02419916028
3821000000,-0.179964406249,0.381987212651,2.01824741994
3841000000,-0.17768581058,0.383047953314,2.01229537879
3861000000,-0.1754008928,0.38409501524,2.00634396463
3881000000,-0.173109525177,0.385127928208,2.00039241828
3901000000,-0.170811963539,0.386147045353,1.99444147141
3921000000,-0.168508131823,0.387151987032,1.98849041342
3941000000,-0.16619823417,0.388142989233,1.98253994847
3961000000,-0.163882266309,0.389119819138,1.9765893719
3981000000,-0.161560381092,0.390082604133,1.9706393841
4001000000,-0.15923261001,0.391031185556,1.96468928189
4021000000,-0.159232624427,0.391031220282,1.96468963237
4041000000,-0.154559848486,0.392885843448,1.95279048035
4061000000,-0.15221500385,0.39379180419,1.94684107641
4081000000,-0.149864636018,0.394683493963,1.94089190165
4101000000,-0.147508832288,0.395560888379,1.93494330545
4121000000,-0.14514767227,0.39642394304,1.92899458363
4141000000,-0.14278124268,0.397272631935,1.92304643728
4161000000,-0.140409631079,0.398106930503,1.91709816106
4181000000,-0.138032921572,0.398926806918,1.91115010492
4201000000,-0.135651196275,0.399732223204,1.9052027956
4221000000,-0.133264546416,0.400523166977,1.89925552715
4241000000,-0.13087305633,0.401299606514,1.89330812011
4262000000,-0.128476809237,0.402061506398,1.88736110246
4281000000,-0.126075892751,0.402808844316,1.88141429569
4301000000,-0.123670395577,0.403541601841,1.87546752094
4321000000,-0.121260398118,0.404259734274,1.8695213073
4341000000,-0.118845994514,0.404963240963,1.86357494464
4361000000,-0.11642726391,0.405652072567,1.85762913975
4381000000,-0.114004300415,0.406326229534,1.85168318157
4401000000,-0.111577183722,0.406985663446,1.8457377778
4421000000,-0.109146007898,0.407630375847,1.83979221642
4441000000,-0.106710852871,0.408260318118,1.83384720595
4461000000,-0.104271813267,0.408875495158,1.82790203366
4481000000,-0.101828968083,0.409475853617,1.82195758681
4501000000,-0.0993824124982,0.410061401745,1.81601297394
4521000000,-0.0969322327932,0.41063211438,1.81006837068
4541000000,-0.0944785133041,0.411187957736,1.80412413132
4561000000,-0.0920213451135,0.411728925812,1.7981798976
4581000000,-0.0895608094287,0.412254970247,1.79223620226
4601000000,-0.0870970044519,0.412766117189,1.78629233018
4621000000,-0.0846300104397,0.413262313561,1.78034899274
4641000000,-0.0821599209987,0.413743566914,1.77440547435
4661000000,-0.0821599181656,0.413743553165,1.77440583135
4681000000,-0.0772107981178,0.414661125202,1.7625193141
4701000000,-0.0747319418698,0.415097398601,1.7565766684
4721000000,-0.0722503412156,0.415518651076,1.75063419062
4741000000,-0.0697660869839,0.415924880258,1.74469152134
4761000000,-0.0672792643146,0.416316052045,1.73874919452
4781000000,-0.0647899643445,0.416692166255,1.73280685072
4801000000,-0.0622982725096,0.417053188599,1.72686502407
4821000000,-0.0622982725096,0.417053188599,1.72686502407
4841000000,-0.0573080780759,0.417729962822,1.71498148422
4861000000,-0.0548097531079,0.418045689131,1.70903976685
4881000000,-0.0523093926939,0.418346275811,1.70309855848
4901000000,-0.0498070894234,0.418631737431,1.69715714198
4921000000,-0.0473029290286,0.41890203689,1.69121623033
4939000000,-0.0473029290286,0.41890203689,1.69121623033
4962000000,-0.0422893999269,0.419397157071,1.67933448313
4981000000,-0.0397802099528,0.419621961438,1.6733938222
5001000000,-0.0372695224842,0.419831588044,1.66745312153
5021000000,-0.0347574248977,0.42002600809,1.66151291508
5041000000,-0.0322440092442,0.420205242206,1.6555724861
5061000000,-0.0297293626339,0.420369256783,1.64963254702
5081000000,-0.0272135766572,0.42051807118,1.64369238132
5101000000,-0.02469673882,0.42065165279,1.63775270111
5121000000,-0.0221789406209,0.420770024364,1.63181279022
5141000000,-0.0196602699087,0.420873154307,1.62587336041
5161000000,-0.0171408177535,0.420961064086,1.61993369585
5181000000,-0.0146206723774,0.421033723119,1.61399450785
5201000000,-0.0120999244213,0.421091149244,1.60805525929
5221000000,-0.00957866316777,0.421133332773,1.60211612635
5241000000,-0.00705697827745,0.421160272713,1.59617710689
5261000000,-0.00453495945384,0.421171972096,1.59023802078
5281000000,-0.0020126961525,0.421168423947,1.58429904392
5301000000,0.000509722142757,0.421149606592,1.57836070782
5321000000,0.00303220537517,0.421115562047,1.572421943
5341000000,0.00555466410416,0.421066249787,1.5664838138
5361000000,0.00807700871193,0.421001703505,1.5605454298
5381000000,0.0105991497304,0.420921918802,1.55460696681
5401000000,0.0131209973914,0.420826883611,1.5486687774
5421000000,0.0156424624341,0.420716614425,1.54273050476
5441000000,0.0181634544222,0.420591085413,1.53679267829
5461000000,0.0181634544222,0.420591085413,1.53679267829
5481000000,0.0232036636582,0.42029435009,1.52491693763
5501000000,0.0257227021917,0.420123151901,1.51897901957
5519000000,0.0257227022755,0.420123153505,1.51897937283
5541000000,0.0307581993168,0.419735099976,1.50710378405
5561000000,0.0332744807049,0.419518279618,1.50116646169
5581000000,0.0357896623164,0.419286233236,1.49522886318
5601000000,0.0383036584263,0.419039016203,1.48929169122
5621000000,0.0408163758689,0.418776586283,1.4833542393
5641000000,0.0433277315322,0.418499020795,1.47741720888
5661000000,0.0458376282325,0.418206239836,1.47147989471
5681000000,0.0483459863572,0.41789834919,1.46554299699
5701000000,0.050852706106,0.417575253788,1.45960581174
5722000000,0.0508527130108,0.417575315404,1.45960616196
5741000000,0.0558610557848,0.416884979084,1.44773234086
5761000000,0.0583623506164,0.416516488641,1.44179533235
5781000000,0.0608615050624,0.416131774645,1.43585870843
5801000000,0.0633587274468,0.415733079926,1.42992180673
5821000000,0.0658537840581,0.415319301419,1.42398495509
5841000000,0.0683465999616,0.414890540665,1.41804849918
5861000000,0.0708370600395,0.414446635044,1.41211174089
5881000000,0.073325101667,0.413987762986,1.40617537323
5901000000,0.0758106117251,0.413513787116,1.40023869939
5921000000,0.0782935215514,0.413024839822,1.39430241079
5941000000,0.0807737322316,0.412520874316,1.38836615787
5961000000,0.0832511557384,0.412001908827,1.38242959395
5981000000,0.0857257070767,0.411467976678,1.37649323458
6001000000,0.0881972996192,0.410919101179,1.37055673278
6021000000,0.0906658472492,0.410355307398,1.36462060271
6041000000,0.093131258118,0.409776593009,1.35868415408
6061000000,0.093131258118,0.409776593009,1.35868415408
6081000000,0.0980523261259,0.40857450942,1.34681183854
6101000000,0.100507808533,0.40795117888,1.34087545286
6121000000,0.102959805739,0.407313010943,1.33493959579
6141000000,0.102959805739,0.407313010943,1.33493959579
6161000000,0.107853000646,0.405992264242,1.32306706818
6181000000,0.110294025863,0.405309733085,1.31713090497
6201000000,0.112731219496,0.404612454828,1.31119474906
6221000000,0.11516449531,0.403900453391,1.30525842875
6241000000,0.117593767229,0.403173753184,1.29932245001
6261000000,0.120018948374,0.40243237573,1.29338613354
6281000000,0.122439950441,0.401676337864,1.28745015307
6301000000,0.124856692397,0.400905681502,1.28151383147
6321000000,0.127269086303,0.400120424442,1.27557800794
6341000000,0.129677045799,0.399320590197,1.26964167223
6361000000,0.13208048568,0.398506206135,1.26370532609
6381000000,0.13447932056,0.397677298991,1.25776946871
6401000000,0.136873465207,0.396833895992,1.25183326154
6421000000,0.139262834545,0.395976024855,1.24589687068
6441000000,0.141647344041,0.395103714889,1.23996062665
6461000000,0.144026908186,0.394216992573,1.2340243607
6481000000,0.146401442766,0.393315888193,1.22808790495
6501000000,0.14877086336,0.392400431415,1.22215175397
6521000000,0.151135085719,0.391470652387,1.21621524376
6541000000,0.153494025763,0.390526581744,1.21027903253
6561000000,0.15584759959,0.389568250603,1.2043424589
6581000000,0.158195723479,0.388595690562,1.19840585021
6601000000,0.160538310153,0.387608924323,1.19246969618
6621000000,0.162875283661,0.386608003227,1.18653301067
6641000000,0.165206557155,0.38559295091,1.18059677235
6661000000,0.167532047651,0.384563800893,1.17466016337
6681000000,0.169851672353,0.383520587169,1.16872334589
6701000000,0.172165348665,0.382463344211,1.1627866419
6721000000,0.174472994183,0.381392106964,1.1568497253
6741000000,0.176774527182,0.380306911917,1.15091307863
6761000000,0.179069864713,0.379207792825,1.14497605402
6781000000,0.181358925449,0.378094787124,1.13903929346
6801000000,0.183641627802,0.37696793165,1.13310215195
6821000000,0.185917890391,0.37582726371,1.12716526864
6841000000,0.18818763205,0.374672821079,1.12122800137
6861000000,0.190450771824,0.373504641999,1.11529098636
6881000000,0.192707228979,0.372322765178,1.10935390146
6901000000,0.194956923001,0.371127229792,1.10341642896
6921000000,0.197199773594,0.369918075477,1.09747888364
6941000000,0.199435700693,0.368695342336,1.09154157876
6961000000,0.201664624458,0.367459070931,1.08560388119
6981000000,0.203886465278,0.366209302284,1.07966641812
7001000000,0.206101143778,0.364946077879,1.07372855951
7021000000,0.208308580816,0.363669439656,1.06779092946
7041000000,0.210508697489,0.362379430013,1.06185290105
7061000000,0.212701415133,0.361076091801,1.05591509519
7081000000,0.214886655328,0.35975946833,1.04997688822
7101000000,0.2170643399,0.358429603358,1.04403905186
7121000000,0.219341259985,0.357018758441,1.03780565733
7141000000,0.221397372958,0.355731399935,1.03216249012
7161000000,0.22355193047,0.354362073701,1.0262238999
7181000000,0.225697967809,0.352978620448,1.02028549655
7201000000,0.227836710419,0.351583220138,1.01434670169
7221000000,0.229967433654,0.350174850327,1.00840780126
7241000000,0.232090061128,0.348753557911,1.00246909649
7261000000,0.23420451672,0.347319390226,0.996529978477
7281000000,0.236310724577,0.345872395049,0.990591050126
7301000000,0.238408609117,0.344412620598,0.984651705916
7321000000,0.240498095031,0.342940115526,0.978712545367
7341000000,0.242579107285,0.341454928927,0.972772966398
7361000000,0.242579107285,0.341454928927,0.972773264652
7381000000,0.24475364234,0.339881776124,0.966538651546
7401000000,0.246817770014,0.338371775834,0.960598987471
7421000000,0.24887248631,0.336848218027,0.954659181401
7441000000,0.250918427939,0.335312181881,0.948719100655
7461000000,0.252955521292,0.333763718669,0.942778890669
7481000000,0.254983693052,0.332202880093,0.936838989259
7501000000,0.257002870195,0.330629718281,0.930898514462
7521000000,0.259012979991,0.329044285785,0.924958195164
7542000000,0.261013950006,0.327446635579,0.919017591959
7561000000,0.263005708108,0.325836821061,0.913076848561
7581000000,0.264988182464,0.324214896048,0.90713596285
7601000000,0.266961301549,0.322580914774,0.901194789293
7621000000,0.268924994142,0.320934931892,0.895253756187
7641000000,0.270879189331,0.319277002467,0.889312288533
7661000000,0.272823816517,0.317607181982,0.883370670722
7681000000,0.274758811869,0.315925534087,0.877429326876
7701000000,0.276684092553,0.314232099527,0.871487402564
7721000000,0.278599595326,0.31252694281,0.865545603661
7741000000,0.280505250858,0.310810121056,0.859603504788
7747000000,0.282400990141,0.309081691787,0.853661245021
7781000000,0.284286744492,0.30734171293,0.847718822321
7801000000,0.286162445557,0.305590242813,0.841776095895
7821000000,0.288028025312,0.303827340164,0.835833479911
7841000000,0.288076203101,0.303774952302,0.835715649196
7861000000,0.289770450101,0.302149466962,0.828054926203
7881000000,0.291615777239,0.300364748052,0.822112141163
7901000000,0.293451111502,0.298568501717,0.816168750573
7921000000,0.295277948786,0.296763051057,0.812533955602
7941000000,0.295415993521,0.2966227133,0.812117896691
7962000000,0.297072767897,0.29495666636,0.804410723826
7981000000,0.298876466262,0.293127288704,0.798467195749
8001000000,0.298924280126,0.293074839992,0.800404444642
8021000000,0.300562203852,0.291389269538,0.792956126722
8041000000,0.302346785665,0.289540029515,0.789298240737
8061000000,0.304119903179,0.287678598791,0.78335391777
8081000000,0.30588174392,0.285805833762,0.777409270535
8101000000,0.307633085676,0.283922632432,0.771464700481
8121000000,0.309373183779,0.282028393585,0.765519673593
8141000000,0.311102313976,0.280123514434,0.759574454483
8161000000,0.312820530931,0.278208169535,0.753629436782
8181000000,0.314527536764,0.276282201855,0.747683827534
8201000000,0.316223405087,0.27434580464,0.74173828138
8221000000,0.317908042735,0.272399014418,0.735792404107
8241000000,0.319581400207,0.270441908105,0.729846324528
8262000000,0.321243416134,0.268474551646,0.723900040732
8281000000,0.322894022796,0.266497005487,0.717953422597
8301000000,0.322934757068,0.266438580719,0.717592111242
8321000000,0.324431171328,0.264618554116,0.710126981886
8341000000,0.326060713882,0.262622958108,0.706459461282
8361000000,0.327677350402,0.26061578663,0.700512231091
8381000000,0.329283082315,0.25859930792,0.6945650376
8401000000,0.33087638455,0.256572363349,0.688617374861
8421000000,0.332458095905,0.254535772,0.682669745951
8441000000,0.334027825397,0.252489331106,0.676721647509
8461000000,0.335585720583,0.250433277467,0.670773577292
8481000000,0.337131644986,0.248367617665,0.664825036065
8501000000,0.338665603861,0.246292470891,0.658876517203
8521000000,0.340187494487,0.244207871562,0.652927525907
8541000000,0.341697289619,0.242113912779,0.646978551302
8561000000,0.34319492094,0.240010655997,0.641029102687
8581000000,0.344680346242,0.237898182375,0.635079664949
8601000000,0.346153496023,0.23577655279,0.629129751824
8621000000,0.347614330893,0.233645850283,0.62317984385
8641000000,0.349062780144,0.231506135192,0.617229459087
8661000000,0.350498797054,0.229357485258,0.611279073834
8681000000,0.35192233002,0.227199974633,0.605328210367
8701000000,0.353333324985,0.225033675765,0.599377340634
8721000000,0.354802499292,0.222749693916,0.593126611807
8741000000,0.354902730903,0.222575653574,0.592467987785
8761000000,0.356172458233,0.220579057846,0.586939677763
8781000000,0.357543882053,0.218386083176,0.581301405922
8801000000,0.358904256883,0.216185413167,0.575349423277
8821000000,0.360251438683,0.21397606836,0.569397189003
8841000000,0.3615854838,0.211758199061,0.563444587193
8861000000,0.362906825252,0.209533304972,0.557491827687
8881000000,0.364215103521,0.207305077488,0.551538327664
8901000000,0.36551026448,0.20507396276,0.545584716537
8921000000,0.366792542913,0.202840261992,0.539630451783
8941000000,0.368061729047,0.200603997766,0.533675896253
8961000000,0.369317454394,0.198365102805,0.527721725664
8981000000,0.370560270143,0.196124045522,0.521766776934
9001000000,0.371789685746,0.193880690259,0.515812172663
9021000000,0.373005854043,0.191635271179,0.509857314964
9041000000,0.374208636715,0.189387849058,0.503902487209
9061000000,0.37539797864,0.187138531191,0.497947752676
9081000000,0.376573821711,0.184887422624,0.491993174887
9101000000,0.377736115089,0.182634631795,0.486038563091
9122000000,0.378884792828,0.180380258665,0.480084229323
9141000000,0.380019776759,0.178124396782,0.47413101693
9161000000,0.381141065493,0.175867178625,0.468177429284
9181000000,0.38224857577,0.173608657829,0.462224864639
9201000000,0.383342294262,0.171345563846,0.45627252097
9221000000,0.38442228793,0.16907600813,0.450320358179
9241000000,0.385488465993,0.166799950853,0.444368403952
9261000000,0.385563415366,0.166624968264,0.443957546198
9281000000,0.386528800426,0.164522689834,0.438182459197
9301000000,0.387566960703,0.162233988185,0.432231034316
9321000000,0.388590881766,0.159938568097,0.42657717366
9341000000,0.389601225238,0.15763711805,0.420626022039
9361000000,0.390597855045,0.155329663951,0.41467546149
9381000000,0.391580219666,0.153016059223,0.40872496681
9401000000,0.392548481179,0.150696473386,0.402774711057
9421000000,0.393502517905,0.148370953845,0.396824518005
9441000000,0.394442511699,0.146039676471,0.390874908466
9461000000,0.395368192466,0.143702625368,0.384925184072
9481000000,0.396279718816,0.141359962775,0.378976040142
9501000000,0.397176945141,0.139011727291,0.373026951978
9521000000,0.398059863635,0.136658013451,0.367078091998
9541000000,0.398928459954,0.13429891266,0.361129458393
9561000000,0.399824085981,0.131817335139,0.354884705977
9581000000,0.400664459739,0.129447908079,0.348936734179
9601000000,0.401489183385,0.127072897226,0.342988612145
9621000000,0.402299472654,0.124692847468,0.33704105968
9641000000,0.403095285332,0.122307839532,0.33109337341
9661000000,0.403876600408,0.119917961623,0.325145902239
9681000000,0.404643390761,0.117523299729,0.319199171488
9701000000,0.405395628916,0.115123939704,0.313252124909
9721000000,0.406133276488,0.112719963945,0.307305639966
9741000000,0.406856336145,0.110311467862,0.301359186656
9761000000,0.40756475543,0.107898529389,0.295412939274
9781000000,0.40825852131,0.105481238845,0.28946689569
9801000000,0.4089376139,0.103059684237,0.283520877566
9821000000,0.409601990218,0.100633946884,0.277575412618
9841000000,0.410251653871,0.0982041215047,0.271629792517
9861000000,0.410886556092,0.0957702879161,0.265684722209
9881000000,0.411506699336,0.0933325401383,0.259739492417
9901000000,0.412112036891,0.0908909588445,0.253794808771
9921000000,0.412702572308,0.0884456379885,0.247849961519
9941000000,0.413278272311,0.0859966618328,0.241905302607
9949000000,0.413839104054,0.0835441150442,0.235961184325
9981000000,0.414385060197,0.0810880885336,0.230017250803
10001000000,0.414916127136,0.0786286714636,0.224073322474
10021000000,0.415432280384,0.0761659504405,0.218129574718
10041000000,0.415933508515,0.0737000149994,0.212185827957
10061000000,0.416419774306,0.071230949123,0.206242612739
10081000000,0.416891085669,0.068758846378,0.200299216933
10101000000,0.417347413269,0.0662837924028,0.1943559936
10121000000,0.417788728219,0.0638058732203,0.188413295914
10141000000,0.418215040059,0.0613251822018,0.182470411491
10161000000,0.418626301362,0.058841801984,0.1765282265
10181000000,0.419022536565,0.0563558282847,0.1705856729
10201000000,0.419403698068,0.0538673439596,0.164643637195
10221000000,0.419769794101,0.0513764415464,0.15870158411
10241000000,0.420120802274,0.0488832083553,0.152759689305
10261000000,0.420456711092,0.0463877335103,0.146817950732
10281000000,0.420777515372,0.043890106985,0.140876188512
10301000000,0.421083196553,0.0413904167729,0.13493457841
10321000000,0.421373730768,0.0388887503423,0.128993473892
10341000000,0.421649132941,0.0363852002171,0.123052161823
10361000000,0.421909360491,0.0338798515905,0.117111529017
10381000000,0.42215444335,0.0313727984482,0.111170506681
10401000000,0.422384338774,0.0288641262165,0.105229981617
10421000000,0.422599060327,0.026353926673,0.0992894183818
10441000000,0.422798590691,0.0238422881977,0.0933489925852
10461000000,0.422982923534,0.021329300336,0.0874087023623
10481000000,0.423152051874,0.0188150525452,0.0814685453763
10503000000,0.423305976246,0.0162996348356,0.0755283420444
10521000000,0.423444670869,0.0137831352354,0.0695886229114
10541000000,0.423568155981,0.0112656451242,0.0636486757265
10561000000,0.423676413832,0.0087472531063,0.0577088534349
10581000000,0.42376941899,0.00622804769527,0.0517696861009
10601000000,0.42376928658,0.00603348975719,0.0513581364168
10621000000,0.423837207102,0.00372869376855,0.0436184287035
10641000000,0.423900913347,0.00120849948984,0.0399203185686
10661000000,0.423948684951,-0.00131258093221,0.0339811548262
10681000000,0.423980785605,-0.00383413283314,0.028041925608
10701000000,0.423997814846,-0.00635604590838,0.0221029849252
10721000000,0.423999570832,-0.00887823636273,0.0161643309174
10742000000,0.42398593019,-0.0114006151444,0.0102254307172
10761000000,0.423957118047,-0.0139230892252,0.00428698968976
10781000000,0.423912981013,-0.0164455699255,-0.00165170145057
10801000000,0.423853643183,-0.0189679664646,-0.00758995659061
10821000000,0.423779012855,-0.0214901891129,-0.0135284450025
10841000000,0.423689160358,-0.0240121498352,-0.0194673557514
10861000000,0.423584043836,-0.0265337582769,-0.0254056542171
10881000000,0.423463702975,-0.0290549252023,-0.0313454213751
10901000000,0.423328111576,-0.0315755601945,-0.0372835367763
10921000000,0.423177304611,-0.0340955750229,-0.0432234912788
10941000000,0.423011253716,-0.0366148787146,-0.0491614324942
10961000000,0.422830019414,-0.0391333846488,-0.0551014473431
10981000000,0.422633528523,-0.0416509992365,-0.0610392230434
11001000000,0.422421874836,-0.0441676382032,-0.0669792491086
11021000000,0.422194967568,-0.0466832060312,-0.0729168679397
11041000000,0.421952911229,-0.0491976204431,-0.0788569328727
11061000000,0.421695615284,-0.0517107846484,-0.0847944037843
11081000000,0.421423204983,-0.0542226193733,-0.0907345241039
11101000000,0.421135552161,-0.05673302331,-0.0966718559136
11121000000,0.42083273413,-0.0592419132562,-0.102609121483
11141000000,0.420514861542,-0.0617492113186,-0.108550724358
11161000000,0.420181742005,-0.0642548068669,-0.114487864094
11181000000,0.419833573913,-0.0667586321042,-0.120428058487
11201000000,0.419470235503,-0.069260582744,-0.126366684023
11221000000,0.419091784342,-0.0717605752966,-0.132305281362
11241000000,0.418698247757,-0.0742585232969,-0.13824385009
11261000000,0.418289567119,-0.0767543279778,-0.144180713964
11281000000,0.41786589695,-0.0792479213269,-0.150120900557
11301000000,0.417427079836,-0.0817391893467,-0.156057669717
11321000000,0.416973271025,-0.084228065333,-0.161997832465
11341000000,0.416504373677,-0.0867144429764,-0.167934515817
11361000000,0.41602048166,-0.0891982469416,-0.173874642885
11381000000,0.415521564485,-0.0916793810884,-0.179811249349
11401000000,0.415007676247,-0.0941577641502,-0.185751329629
11421000000,0.414478803641,-0.096633302638,-0.191687868138
11441000000,0.413907840202,-0.0992309008617,-0.197926521016
11461000000,0.413375031769,-0.101575256495,-0.203566130739
11481000000,0.412801357102,-0.104041735815,-0.209502584086
11501000000,0.412213975038,-0.106505284369,-0.215440761383
11521000000,0.411610522097,-0.108965298246,-0.221377169154
11541000000,0.410992205813,-0.111421943893,-0.227318762426
11561000000,0.410359054592,-0.113875136014,-0.233255133579
11581000000,0.409711087184,-0.116324787165,-0.239194897627
11601000000,0.409048321297,-0.118770809586,-0.245132920126
11621000000,0.408370778559,-0.121213116434,-0.251070912833
11641000000,0.407678482226,-0.123651621291,-0.257008876241
11661000000,0.406971456046,-0.126086237893,-0.262946810381
11681000000,0.406249711146,-0.12851687651,-0.268884715755
11701000000,0.405513291738,-0.130943456464,-0.274821029381
11721000000,0.404762212183,-0.133365888958,-0.280760441827
11741000000,0.403996497081,-0.135784087967,-0.286696759211
11761000000,0.403216171526,-0.138197967609,-0.292636057503
11781000000,0.402421261104,-0.140607442155,-0.298572387621
11801000000,0.401611793012,-0.143012426361,-0.304511566643
11821000000,0.400787791585,-0.145412834091,-0.31044791847
11841000000,0.399949285001,-0.147808580406,-0.316386972872
11861000000,0.399096300809,-0.150199580177,-0.322323355377
11881000000,0.398228876601,-0.152585751697,-0.328262280499
11901000000,0.397347021798,-0.154967003634,-0.334199899132
11921000000,0.396450773913,-0.15734325406,-0.340137497802
11941000000,0.395540164611,-0.159714419412,-0.346073968471
11961000000,0.394615222773,-0.162080415002,-0.35201266824
11981000000,0.393675978868,-0.164441156694,-0.357949196468
12001000000,0.392722463849,-0.166796560525,-0.363887814183
12021000000,0.391754709092,-0.169146542855,-0.369824408977
12041000000,0.390772746555,-0.171491019982,-0.375762919743
12061000000,0.38977660865,-0.173829908441,-0.381699590036
12081000000,0.388766328255,-0.176163124995,-0.387637909824
12101000000,0.387741938646,-0.178490586785,-0.39357466486
12121000000,0.386703473579,-0.180812211129,-0.399512719568
12142000000,0.385650967508,-0.183127915008,-0.405449568601
12161000000,0.384584455315,-0.185437615728,-0.411386839877
12181000000,0.383503972428,-0.187741230654,-0.417323651494
12201000000,0.382409554346,-0.190038678263,-0.42326065561
12221000000,0.381301237264,-0.192329876714,-0.429197397503
12241000000,0.380179057858,-0.194614744347,-0.435134517126
12261000000,0.379043053276,-0.196893199712,-0.441071380361
12281000000,0.377893261134,-0.199165161568,-0.44700862436
12301000000,0.376729719515,-0.20143054889,-0.452945617913
12321000000,0.375552466972,-0.203689280868,-0.45888299514
12341000000,0.374361542521,-0.20594127691,-0.464820127795
12361000000,0.373156985643,-0.20818645665,-0.470757647083
12381000000,0.371938836282,-0.210424739943,-0.476694927723
12402000000,0.370707133809,-0.212656046327,-0.482632441949
12421000000,0.369461921166,-0.214880297197,-0.48857019085
12441000000,0.368203238641,-0.217097412557,-0.494508020683
12461000000,0.366931136871,-0.21930731804,-0.500445622984
12481000000,0.365645640367,-0.221509925008,-0.506383621259
12501000000,0.364346800709,-0.223705159516,-0.512321243936
12521000000,0.363034661049,-0.225892943062,-0.518259419402
12541000000,0.361709264995,-0.228073197387,-0.524197379984
12561000000,0.360370656605,-0.230245844479,-0.530135588572
12581000000,0.359018880389,-0.232410806578,-0.536073893791
12601000000,0.357653981308,-0.234568006174,-0.542012297871
12620000000,0.356276004768,-0.236717366012,-0.547950954436
12641000000,0.354884996625,-0.238858809095,-0.553889562158
12661000000,0.353481003178,-0.240992258686,-0.559828124478
12681000000,0.35206407117,-0.243117638308,-0.56576709571
12701000000,0.35063424779,-0.245234871751,-0.57170587597
12721000000,0.349191580665,-0.24734388307,-0.577645067759
12741000000,0.347736117864,-0.249444596592,-0.583584373049
12761000000,0.346267907893,-0.251536936913,-0.589523346894
12781000000,0.344786999696,-0.253620828906,-0.595462885611
12801000000,0.343293442653,-0.25569619772,-0.601402248323
12821000000,0.341787286577,-0.257762968783,-0.607341881746
12841000000,0.340268581715,-0.259821067805,-0.613281639695
12861000000,0.338737378745,-0.261870420781,-0.619221524469
12881000000,0.337193728774,-0.263910953992,-0.625161684051
12901000000,0.335637683338,-0.265942594007,-0.631101682609
12921000000,0.334069294399,-0.267965267688,-0.637042105367
12941000000,0.332488614345,-0.269978902191,-0.642982373122
12961000000,0.330895695987,-0.271983424967,-0.648923067478
12981000000,0.329290600559,-0.273978769921,-0.654863756601
13001000000,0.327673365679,-0.275964852842,-0.660804443924
13021000000,0.326044053456,-0.277941608193,-0.666745561386
13041000000,0.324402718379,-0.279908964633,-0.672686824053
13061000000,0.322749415356,-0.281866851132,-0.678627948793
13081000000,0.321084199706,-0.283815196968,-0.684569508097
13101000000,0.319407127162,-0.285753931735,-0.69051079456
13121000000,0.317718253868,-0.287682985338,-0.696452518259
13141000000,0.315676108579,-0.289984972305,-0.703582817965
13161000000,0.314047637184,-0.291798701738,-0.709229828288
13181000000,0.312320902838,-0.293695882719,-0.715171902406
13201000000,0.310583666835,-0.295584007981,-0.721114424327
13221000000,0.308834925735,-0.297462096175,-0.727056833559
13241000000,0.307074738172,-0.2993300792,-0.732999685431
13261000000,0.305303163178,-0.301187889283,-0.738942430586
13281000000,0.303520260183,-0.303035458989,-0.744885620501
13301000000,0.301726089012,-0.304872721217,-0.750828709708
13321000000,0.299920709882,-0.306699609204,-0.756772245711
13341000000,0.298104183403,-0.308516056528,-0.76271595776
13361000000,0.296276570574,-0.310321997113,-0.768659577082
13381000000,0.294437932784,-0.312117365224,-0.774603378354
13401000000,0.292588331807,-0.313902095476,-0.780547496787
13421000000,0.290727829799,-0.315676122834,-0.786491932901
13441000000,0.288856489304,-0.317439382614,-0.792436289151
13461000000,0.286974373241,-0.319191810487,-0.798381099138
13481000000,0.285081544912,-0.320933342478,-0.804325835159
13501000000,0.283178067994,-0.322663914975,-0.810271026843
13522000000,0.281264006539,-0.324383464722,-0.816216150494
13541000000,0.279339424973,-0.32609192883,-0.82216173165
13561000000,0.277404388093,-0.327789244772,-0.828107250677
13581000000,0.275458961065,-0.32947535039,-0.834053099871
13601000000,0.273503209423,-0.331150183896,-0.839999151123
13621000000,0.271537199065,-0.332813683872,-0.84594553433
13641000000,0.269560996253,-0.334465789274,-0.851891994719
13661000000,0.267574667613,-0.336106439434,-0.857838790397
13681000000,0.265578286674,-0.337735581744,-0.863785540564
13701000000,0.263571907636,-0.339353140972,-0.869732756267
13721000000,0.261555604789,-0.34095906523,-0.87567980677
13741000000,0.259529446181,-0.342553295377,-0.881627449997
13761000000,0.257493500215,-0.344135772655,-0.887575309778
13781000000,0.25544783564,-0.345706438695,-0.893523014598
13801000000,0.253392521554,-0.34726523552,-0.899471189709
13821000000,0.2513276274,-0.348812105544,-0.905419587377
13841000000,0.249253222964,-0.350346991576,-0.911368209547
13861000000,0.247169378372,-0.351869836822,-0.917317179742
13881000000,0.24507616409,-0.353380584887,-0.923266134443
13901000000,0.24297365092,-0.354879179775,-0.929215561559
13921000000,0.240861910001,-0.356365565894,-0.935165219838
13941000000,0.238741012801,-0.357839688057,-0.941114870232
13961000000,0.236611031119,-0.359301491483,-0.947064996202
13981000000,0.234472037086,-0.360750921799,-0.953015119941
14001000000,0.232324103153,-0.362187925045,-0.958965720702
14021000000,0.230167302099,-0.36361244767,-0.964916324971
14042000000,0.228001707023,-0.365024436541,-0.970867407558
14061000000,0.225827396985,-0.366423847308,-0.976818499357
14081000000,0.223644434389,-0.367810610967,-0.98277007074
14101000000,0.221452898975,-0.369184683973,-0.988721541713
14121000000,0.219252865108,-0.370546014871,-0.994673608793
14141000000,0.21704440746,-0.371894552625,-1.00062569745
14161000000,0.214827601013,-0.373230246631,-1.00657815339
14181000000,0.212603307838,-0.374553070839,-1.012530965
14201000000,0.210375557917,-0.37586300676,-1.01848441249
14221000000,0.208144970974,-0.37715994208,-1.02443815573
14241000000,0.20591171887,-0.37844389408,-1.0303923822
14261000000,0.203675696849,-0.379714432953,-1.03634634194
14281000000,0.201437405805,-0.380972152756,-1.04230110203
14301000000,0.199196670319,-0.382216508977,-1.04825560148
14321000000,0.196953758608,-0.383447707566,-1.05421041708
14341000000,0.194708745616,-0.384665624494,-1.06016550562
14361000000,0.192461670448,-0.385870079571,-1.06612010623
14381000000,0.190212723394,-0.387061166901,-1.0720750974
14401000000,0.187961946698,-0.388238713903,-1.07802945126
14421000000,0.185709490895,-0.389402746764,-1.08398409144
14441000000,0.183455440461,-0.390553170709,-1.08993846096
14461000000,0.181199889464,-0.391689908484,-1.09589197984
14481000000,0.178942969375,-0.392812956464,-1.10184561795
14501000000,0.176684771504,-0.393922234411,-1.10779825549
14521000000,0.174422484415,-0.395017704458,-1.11375091377
14541000000,0.172153761792,-0.396099461496,-1.11970253781
14561000000,0.169878535093,-0.397167414658,-1.12565452103
14581000000,0.167596794001,-0.398221378049,-1.13160644085
14601000000,0.165308754519,-0.39926161755,-1.13755775703
14621000000,0.163014315187,-0.40028771772,-1.14350918355
14641000000,0.160713695457,-0.401299949648,-1.14946001404
14661000000,0.158406871165,-0.402298043844,-1.1554109539
14681000000,0.156093977964,-0.403282082384,-1.16136165303
14701000000,0.153775129298,-0.404252102613,-1.16731176249
14721000000,0.151450346995,-0.405207927321,-1.17326198541
14741000000,0.149119761384,-0.406149629306,-1.17921162243
14761000000,0.146783438098,-0.407077131626,-1.1851610259
14781000000,0.144441454734,-0.407990388533,-1.19111037236
14801000000,0.142093905276,-0.408889391751,-1.19705948871
14821000000,0.139740872369,-0.409774104752,-1.20300855226
14841000000,0.137382443442,-0.41064450337,-1.20895721359
14861000000,0.13501870125,-0.41150055137,-1.21490582598
14881000000,0.132649731207,-0.412342219017,-1.22085386374
14901000000,0.130275620776,-0.413169482002,-1.22680203231
14921000000,0.127896449749,-0.413982296612,-1.23274962944
14941000000,0.125512312252,-0.414780658617,-1.23869736152
14961000000,0.123123288794,-0.415564525273,-1.24464452517
14981000000,0.120729462994,-0.416333862121,-1.25059147475
15001000000,0.118330928117,-0.417088663956,-1.25653856605
15021000000,0.115927764085,-0.417828885405,-1.2624852706
15041000000,0.113520061483,-0.418554513846,-1.26843194409
15061000000,0.111107900836,-0.419265504808,-1.27437805737
15081000000,0.108691376276,-0.419961857908,-1.28032432062
15101000000,0.106270565449,-0.420643518415,-1.28626984941
15121000000,0.103845565759,-0.421310498265,-1.29221571005
15141000000,0.101416458816,-0.421962756056,-1.29816137226
15161000000,0.0989833264717,-0.422600249641,-1.30410630496
15181000000,0.0965462646759,-0.423222988132,-1.31005139816
15201000000,0.0941053572865,-0.423830937189,-1.31599629874
15222000000,0.0916606934501,-0.424424082182,-1.32194118658
15241000000,0.0892123574981,-0.42500238972,-1.32788570764
15261000000,0.08676043991,-0.425565850733,-1.33383021999
15281000000,0.0843050217644,-0.426114417286,-1.33977419132
15301000000,0.0818462015159,-0.42664811466,-1.34571833605
15321000000,0.0793840587091,-0.427166887936,-1.35166194336
15341000000,0.0769186875487,-0.427670746126,-1.35760572839
15361000000,0.0744501689838,-0.42815963821,-1.36354880133
15381000000,0.0719785995076,-0.428633585739,-1.36949223462
15401000000,0.0695040607668,-0.4290925398,-1.37543513787
15419000000,0.0670266462125,-0.429536509296,-1.38137822744
15419000000,0.0645464417724,-0.429965465798,-1.38732114815
15461000000,0.0620635335484,-0.430379380175,-1.39326354489
15481000000,0.059578013013,-0.430778252579,-1.39920577659
15501000000,0.0570899707813,-0.431162080271,-1.40514820292
15521000000,0.0545994922729,-0.431530829885,-1.41109028977
15541000000,0.0521066686047,-0.431884502021,-1.41703239669
15561000000,0.0496115846389,-0.432223057342,-1.42297381083
15581000000,0.0471143352963,-0.432546522953,-1.42891560653
15601000000,0.0446150048634,-0.432854854734,-1.4348568922
15621000000,0.0421136850766,-0.433148060023,-1.44079820616
15641000000,0.0396104642694,-0.433426122346,-1.44673937185
15661000000,0.0371054324676,-0.43368903851,-1.45268056987
15678000000,0.0345986761235,-0.433936774895,-1.45862144489
15701000000,0.0320902878202,-0.434169350552,-1.46456217776
15721000000,0.0295803554671,-0.434386744512,-1.47050277068
15741000000,0.0270689692295,-0.434588956823,-1.47644340427
15761000000,0.0245562165622,-0.43477595893,-1.48238354471
15781000000,0.0220421894512,-0.434947771725,-1.48832390866
15801000000,0.0195269745696,-0.435104354843,-1.49426360537
15821000000,0.0170106645478,-0.435245741897,-1.50020370811
15841000000,0.0144933473033,-0.43537190754,-1.50614368341
15861000000,0.0119751112474,-0.435482826911,-1.51208299818
15881000000,0.00945604800744,-0.43557852821,-1.5180225467
15901000000,0.00693624635981,-0.435658994621,-1.52396197426
15921000000,0.00441579619342,-0.435724229698,-1.52990146108
15941000000,0.00189478632804,-0.435774210628,-1.53584047487
15961000000,-0.000626692854532,-0.435808953686,-1.5417795522
15981000000,-0.00314855195401,-0.435828451117,-1.54771851725
16001000000,-0.0056707012209,-0.435832708547,-1.55365754977
16021000000,-0.00819305128761,-0.435821711061,-1.55959629626
16041000000,-0.0107155123364,-0.435795472333,-1.56553511453
16061000000,-0.0132379948206,-0.435753965611,-1.57147329591
16081000000,-0.0157604090706,-0.435697231342,-1.57741190858
16101000000,-0.0182826653743,-0.435625236789,-1.58335006697
16121000000,-0.0208046742969,-0.435538004705,-1.58928830545
16141000000,-0.0233263460157,-0.43543552139,-1.59522644886
16161000000,-0.0258475914418,-0.435317809689,-1.60116449936
16181000000,-0.0283683209798,-0.435184866281,-1.60710263602
16201000000,-0.030888444229,-0.435036672424,-1.61304033043
16221000000,-0.0334078731482,-0.434873268062,-1.61897829193
16241000000,-0.0359265179078,-0.434694645254,-1.62491581599
16261000000,-0.0384442885629,-0.434500799084,-1.63085361107
16281000000,-0.0409610975195,-0.43429176734,-1.63679097688
16301000000,-0.04347685145,-0.43406750269,-1.64272861235
16321000000,-0.0459914656758,-0.433828066042,-1.64866621862
16341000000,-0.0485048471449,-0.433573410191,-1.65460370589
16361000000,-0.0510169130557,-0.433303616854,-1.66054226638
16381000000,-0.0535275655947,-0.433018601215,-1.66647961457
16401000000,-0.0560367252402,-0.432718473485,-1.67241850235
16421000000,-0.0585442954363,-0.432403165044,-1.6783566139
16441000000,-0.0610501858662,-0.43207267771,-1.68429376871
16461000000,-0.063554314886,-0.431727085831,-1.69023181376
16481000000,-0.0660565858559,-0.431366335293,-1.69616885084
16501000000,-0.0685569243029,-0.430990549625,-1.70210786257
16521000000,-0.0710552207433,-0.430599581528,-1.7080447906
16541000000,-0.0735514078281,-0.430193599533,-1.71398380355
16561000000,-0.0760453752727,-0.429772463751,-1.71992063144
16581000000,-0.0785370649622,-0.429336389635,-1.72586077459
16601000000,-0.0810263497866,-0.428885140225,-1.73179751132
16621000000,-0.0835131694562,-0.428418908829,-1.73773653064
16641000000,-0.0859974201886,-0.427937616388,-1.74367436726
16661000000,-0.088479020042,-0.427441316795,-1.7496121782
16681000000,-0.0909578794465,-0.42693001802,-1.75554875931
16701000000,-0.0934339116842,-0.426403743943,-1.76148651479
16721000000,-0.0959070300596,-0.42586251761,-1.76742303152
16741000000,-0.0983771475234,-0.425306359675,-1.77336319975
16761000000,-0.100844173925,-0.424735275858,-1.77929966104
16781000000,-0.103308024459,-0.424149297712,-1.78523857569
16801000000,-0.105768607027,-0.423548422978,-1.79117622957
16821000000,-0.108225839392,-0.422932694337,-1.79711386071
16841000000,-0.110679632442,-0.422302123109,-1.80305146914
16861000000,-0.113129898812,-0.421656728694,-1.80898783102
16881000000,-0.115576552364,-0.42099653554,-1.81492540362
16901000000,-0.118019505134,-0.420321560638,-1.82086174142
16921000000,-0.12045866867,-0.419631819671,-1.82680048798
16941000000,-0.122893960849,-0.41892735245,-1.83273681069
16961000000,-0.125325293337,-0.41820817448,-1.83867549357
16981000000,-0.127752579195,-0.417474307026,-1.84461181015
17001000000,-0.130175732862,-0.416725776365,-1.85055043666
17021000000,-0.132594667651,-0.415962604759,-1.85648675608
17041000000,-0.135009295396,-0.415184809798,-1.86242532751
17061000000,-0.137419535435,-0.414392434088,-1.86836383219
17081000000,-0.139825299629,-0.413585495064,-1.87430017272
17101000000,-0.142226502514,-0.41276401921,-1.88023861336
17121000000,-0.144623058784,-0.4119280335,-1.88617497919
17141000000,-0.147014883428,-0.411077565354,-1.89211335288
17161000000,-0.149401891332,-0.410212642762,-1.89804975322
17181000000,-0.151783998016,-0.409333295278,-1.90398801349
17201000000,-0.154161118044,-0.408439549622,-1.90992445707
17221000000,-0.156533167288,-0.407531436316,-1.91586256648
17241000000,-0.158900061409,-0.406608985261,-1.92179906226
17261000000,-0.161261716473,-0.405672226757,-1.92773558795
17279000000,-0.163618048508,-0.40472119166,-1.93367356947
17304000000,-0.1659689698,-0.403755902003,-1.93961111803
17321000000,-0.168430117142,-0.402726775129,-1.94584286795
17341000000,-0.170769697222,-0.40173239737,-1.95177953358
17361000000,-0.173104085658,-0.40072502422,-1.95771621036
17381000000,-0.175432265999,-0.399702383982,-1.96365295915
17401000000,-0.1777546188,-0.398665664223,-1.96958927046
17421000000,-0.180071061371,-0.397614899195,-1.97552611197
17441000000,-0.182381511217,-0.396550123624,-1.98146300318
17461000000,-0.184685886044,-0.395471372711,-1.98739946219
17481000000,-0.186984103756,-0.394378682131,-1.99333629887
17501000000,-0.189276082462,-0.393272088031,-1.99927319222
17521000000,-0.191561740476,-0.39215162703,-2.00521030445
17541000000,-0.19384099632,-0.391017336216,-2.01114715799
17561000000,-0.196113768728,-0.389869253149,-2.01708439405
17581000000,-0.198379976648,-0.388707415853,-2.02302137735
17601000000,-0.200639539243,-0.387531862823,-2.0289587461
17621000000,-0.202892375895,-0.386342633017,-2.03489586801
17641000000,-0.205138406208,-0.385139765859,-2.04083337827
17661000000,-0.207377550009,-0.383923301235,-2.04677096258
17681000000,-0.209609727353,-0.382693279495,-2.0527083082
17701000000,-0.211834858524,-0.381449741449,-2.05864604725
17721000000,-0.214052864037,-0.380192728367,-2.06458339745
17741000000,-0.216263664639,-0.378922281978,-2.07052130001
17762000000,-0.218467180751,-0.377638443445,-2.07645897655
17781000000,-0.220663334726,-0.37634125746,-2.08239689644
17801000000,-0.22285204747,-0.375030766093,-2.0883350607
17821000000,-0.225033245748,-0.373707021633,-2.09427300793
17841000000,-0.227206841461,-0.372370050577,-2.10021135756
17861000000,-0.229372761819,-0.371019906148,-2.10614980314
17881000000,-0.231530929282,-0.369656633248,-2.11208788695
17902000000,-0.233681266563,-0.36828027723,-2.11802653095
17921000000,-0.235823696632,-0.366890883893,-2.12396497287
17941000000,-0.237958142719,-0.365488499482,-2.12990367233
17961000000,-0.240084528316,-0.364073170686,-2.13584247897
17981000000,-0.242202777179,-0.362644944637,-2.14178139501
18001000000,-0.244312813331,-0.361203868908,-2.1477205729
18021000000,-0.246414561064,-0.359749991513,-2.15365971361
18041000000,-0.248507944941,-0.358283360905,-2.15959912011
18061000000,-0.250592889801,-0.356804025973,-2.16553834471
18081000000,-0.252669320757,-0.355312036043,-2.17147798838
18101000000,-0.254737163203,-0.353807440874,-2.17741730797
18121000000,-0.256796342814,-0.35229029066,-2.18335719734
18141000000,-0.25884678555,-0.350760636025,-2.18929691769
18161000000,-0.260888417655,-0.349218528023,-2.1952369144
18181000000,-0.262921165663,-0.347664018136,-2.20117704184
18201000000,-0.2649449564,-0.346097158275,-2.20711744806
18221000000,-0.266959716985,-0.344518000775,-2.21305784277
18244000000,-0.268965374831,-0.342926598394,-2.2189983746
18261000000,-0.270961857653,-0.341323004313,-2.22493904553
18281000000,-0.272949093464,-0.339707272135,-2.23088000228
18301000000,-0.27492701058,-0.338079455881,-2.23682066948
18321000000,-0.276895537625,-0.336439609988,-2.24276191404
18341000000,-0.278854603528,-0.334787789313,-2.24870301966
18361000000,-0.280804143915,-0.333124056941,-2.25464441809
18381000000,-0.282744075617,-0.33144845288,-2.26058596815
18401000000,-0.284674334838,-0.329761041079,-2.26652781323
18421000000,-0.286594851765,-0.32806187804,-2.27246967226
18441000000,-0.288505556901,-0.326351020672,-2.27841154871
18461000000,-0.290406381074,-0.324628526293,-2.28435372586
18481000000,-0.292297255435,-0.322894452621,-2.29029606491
18501000000,-0.29417811146,-0.321148857779,-2.29623870687
18521000000,-0.296048880957,-0.319391800293,-2.30218137538
18541000000,-0.297909496061,-0.317623339084,-2.30812435035
18561000000,-0.299759889245,-0.315843533473,-2.31406721843
18581000000,-0.301599993314,-0.314052443177,-2.32001053448
18601000000,-0.303429741412,-0.312250128306,-2.32595361304
18621000000,-0.305249067024,-0.310436649362,-2.33189727819
18641000000,-0.307057903976,-0.308612067238,-2.33784084931
18661000000,-0.308856186441,-0.306776443214,-2.34378473652
18682000000,-0.310643848936,-0.304929838961,-2.34972894029
18701000000,-0.31242082633,-0.303072316529,-2.35567319304
18721000000,-0.31418705384,-0.301203938356,-2.36161749821
18741000000,-0.31594246704,-0.299324767258,-2.36756225839
18761000000,-0.317687001859,-0.297434866432,-2.37350694237
18781000000,-0.319420594582,-0.295534299453,-2.37945208328
18801000000,-0.321143181855,-0.29362313027,-2.38539715393
18821000000,-0.322854700688,-0.291701423206,-2.39134268336
18841000000,-0.324555088455,-0.289769242958,-2.39728840995
18861000000,-0.326244282895,-0.287826654588,-2.40323394415
18881000000,-0.327922222117,-0.285873723532,-2.40918007083
18901000000,-0.329588844601,-0.283910515586,-2.415126142
18922000000,-0.3312440892,-0.281937096915,-2.42107254796
18941000000,-0.332887895143,-0.279953534044,-2.42701916117
18961000000,-0.334520202036,-0.277959893856,-2.43296598357
18981000000,-0.336140949862,-0.275956243595,-2.4389131438
19001000000,-0.337750086738,-0.273942657329,-2.44486026317
19021000000,-0.339347537956,-0.271919190027,-2.45080785002
19041000000,-0.340933252363,-0.269885916508,-2.45675565296
19061000000,-0.342507171481,-0.267842905426,-2.46270342272
19081000000,-0.344069237226,-0.265790225786,-2.46865166342
19101000000,-0.345619391903,-0.263727946934,-2.47459987671
19121000000,-0.347157578212,-0.261656138563,-2.48054856253
19141000000,-0.34868373925,-0.259574870706,-2.48649722675
19161000000,-0.35019781851,-0.257484213737,-2.49244636498
19181000000,-0.351699759888,-0.255384238366,-2.49839548733
19201000000,-0.353413014976,-0.252957782844,-2.50523913187
19221000000,-0.354888666994,-0.250838012103,-2.51118899406
19241000000,-0.35635098404,-0.248708412208,-2.51713884301
19261000000,-0.357801953286,-0.246570532784,-2.52308917601
19281000000,-0.359240502137,-0.244423704452,-2.52903974707
19301000000,-0.360666576992,-0.24226799995,-2.53499031979
19321000000,-0.362080124666,-0.240103492337,-2.54094137224
19341000000,-0.363481100754,-0.237930260638,-2.54689243194
19361000000,-0.364869436207,-0.235748367208,-2.55284397275
19381000000,-0.366245087425,-0.233557891755,-2.55879552649
19401000000,-0.367608002898,-0.231358908602,-2.56474756258
19421000000,-0.36895813154,-0.229151492384,-2.57069950223
19441000000,-0.370295422692,-0.226935718046,-2.57665192595
19461000000,-0.37161984252,-0.224712096398,-2.58260478398
19481000000,-0.372931382526,-0.222484596779,-2.58855805707
19501000000,-0.374229968348,-0.220254265296,-2.59451187036
19521000000,-0.375515406142,-0.218021147871,-2.6004657684
19541000000,-0.376787900348,-0.215785519551,-2.60642025648
19561000000,-0.378046948343,-0.213547231472,-2.61237438342
19581000000,-0.379293102855,-0.211306754406,-2.61832929642
19601000000,-0.380525997836,-0.209064020706,-2.62428432751
19621000000,-0.381745406122,-0.206819051499,-2.63023873929
19641000000,-0.382951572349,-0.20457212562,-2.63619358058
19661000000,-0.384144303288,-0.202323272378,-2.64214834464
19681000000,-0.385323570244,-0.200072612932,-2.64810321519
19701000000,-0.386489268389,-0.197820226818,-2.6540576398
19721000000,-0.387641385292,-0.195566242756,-2.66001204967
19741000000,-0.38877982373,-0.193310744116,-2.66596562276
19761000000,-0.389904577847,-0.191053861308,-2.67191931846
19781000000,-0.391015573546,-0.188795688754,-2.67787256212
19801000000,-0.392112749182,-0.186534203567,-2.68382446611
19821000000,-0.39319614181,-0.184266257542,-2.68977691293
19841000000,-0.394265880303,-0.181991869863,-2.69572840465
19861000000,-0.395321671646,-0.179710976084,-2.70168017701
19881000000,-0.396363450663,-0.177423637683,-2.70763188006
19901000000,-0.397391370732,-0.175130018199,-2.71358316096
19921000000,-0.398405349814,-0.172830172667,-2.71953402398
19941000000,-0.39940518637,-0.170524108059,-2.72548499381
19961000000,-0.400391043072,-0.168211995826,-2.73143537432
19981000000,-0.401362742595,-0.165893855836,-2.73738586401
20001000000,-0.402320322365,-0.16356980252,-2.74333611629
20021000000,-0.403263806076,-0.161239945173,-2.74928561048
20041000000,-0.40419304624,-0.158904318905,-2.75523539322
20061000000,-0.405108083764,-0.156563037715,-2.76118459506
20081000000,-0.406008857166,-0.154216174124,-2.76713374078
20101000000,-0.40689533986,-0.151863814903,-2.7730826578
20123000000,-0.407767514561,-0.149506050183,-2.77903152284
20141000000,-0.408625348153,-0.14714296382,-2.78497998813
20161000000,-0.409468804812,-0.144774638987,-2.79092840524
20181000000,-0.41029785523,-0.142401161193,-2.79687625094
20201000000,-0.411112475597,-0.140022617385,-2.80282422741
20221000000,-0.411912622584,-0.137639087959,-2.8087716357
20241000000,-0.412698292439,-0.135250667075,-2.81471917894
20261000000,-0.413469442834,-0.13285743545,-2.82066615706
20281000000,-0.414226051973,-0.130459480841,-2.8266132745
20301000000,-0.414968078414,-0.1280568846,-2.83255983012
20321000000,-0.415695520608,-0.125649740883,-2.83850652929
20342000000,-0.416408328461,-0.123238128377,-2.84445266989
20361000000,-0.417106489193,-0.120822137537,-2.85039860561
20381000000,-0.41778999062,-0.118401858653,-2.85634469157
20401000000,-0.418458784027,-0.115977371246,-2.86229022381
20421000000,-0.419112870612,-0.113548769397,-2.86823591052
20441000000,-0.41975220823,-0.111116134709,-2.87418122377
20461000000,-0.4203767879,-0.108679558097,-2.88012651894
20481000000,-0.4209865684,-0.106239121728,-2.88607126751
20501000000,-0.421581553118,-0.103794919569,-2.89201617889
20521000000,-0.422161679529,-0.101347028621,-2.89796037011
20541000000,-0.422726985311,-0.0988955510976,-2.90390490552
20561000000,-0.423277408906,-0.0964405644129,-2.9098489014
20581000000,-0.423812950185,-0.093982161063,-2.91579289134
20601000000,-0.424333582233,-0.0915204270863,-2.92173670013
20621000000,-0.424839287746,-0.089055450786,-2.92768032976
20641000000,-0.425330055661,-0.0865873217344,-2.93362395974
20661000000,-0.425805855974,-0.0841161254605,-2.93956723708
20681000000,-0.426266683232,-0.0816419526437,-2.94551051883
20701000000,-0.426712515314,-0.0791648904771,-2.95145362947
20721000000,-0.427143316782,-0.0766850238151,-2.95739603819
20741000000,-0.427559111351,-0.0742024485785,-2.96333881266
20761000000,-0.427959845034,-0.0717172462717,-2.96928088897
20781000000,-0.428345542658,-0.0692295125015,-2.97522333538
20801000000,-0.428716156955,-0.0667393303123,-2.98116526528
20821000000,-0.429071826207,-0.0642468122623,-2.98710721194
20841000000,-0.429413306302,-0.0617521590171,-2.99304898678
20861000000,-0.429737474291,-0.0592549995431,-2.99899064278
20881000000,-0.43004768956,-0.0567559232013,-3.00493212694
20901000000,-0.430342780867,-0.0542548465315,-3.01087363821
20921000000,-0.43062270773,-0.0517518548557,-3.01681464531
20941000000,-0.430887505474,-0.0492470431796,-3.02275586136
20961000000,-0.431137141617,-0.0467404977805,-3.02869693292
20981000000,-0.431371594163,-0.0442323065911,-3.03463750653
21001000000,-0.431590880014,-0.0417225617462,-3.04057829535
21021000000,-0.431794964237,-0.0392113498657,-3.04651859041
21041000000,-0.431983867123,-0.0366987630842,-3.05245910487
21061000000,-0.432157554745,-0.0341848883905,-3.05839913
21081000000,-0.432316032126,-0.0316698163834,-3.06433902332
21101000000,-0.432459308334,-0.0291536376602,-3.07027914202
21121000000,-0.432587350948,-0.0266364397731,-3.07621877806
21141000000,-0.432700180575,-0.0241183140104,-3.08215864348
21161000000,-0.432797779822,-0.0215993490437,-3.08809838545
21181000000,-0.432880130626,-0.0190796338124,-3.09403765127
21201000000,-0.432947257506,-0.0165592593144,-3.09997715272
21221000000,-0.432999123561,-0.0140383137417,-3.10591600551
21241000000,-0.433035766047,-0.0115168882193,-3.111855275
21261000000,-0.433057149084,-0.00899507125221,-3.11779407759
21281000000,-0.433063292261,-0.00647295308186,-3.12373294679
21301000000,-0.433054187621,-0.0039506231425,-3.12967170764
21324000000,-0.433029834738,-0.00142817106744,-3.13561036218
21341000000,-0.432990240718,0.00109431352223,3.14163621783
21361000000,-0.432935393287,0.00361674104372,3.13569776933
21381000000,-0.432865305269,0.00613902193192,3.12975924398
21401000000,-0.432779948394,0.00866106616791,3.12382116923
21421000000,-0.432679372968,0.0111827849263,3.11788283698
21441000000,-0.43256354702,0.0137040879999,3.11194495054
21461000000,-0.432432494793,0.016224886432,3.10600680273
21481000000,-0.432286192793,0.018745089744,3.10006909603
21501000000,-0.43212467856,0.0212646097731,3.09413112393
21521000000,-0.43194795694,0.023783357374,3.08819376352
21538000000,-0.431755999585,0.0263012414023,3.08225595837
21561000000,-0.431548851654,0.0288181747936,3.07631858435
21581000000,-0.431326474174,0.0313340653411,3.07038093738
21601000000,-0.431088917538,0.0338488267573,3.06444354138
21621000000,-0.430836147039,0.0363623666221,3.0585060438
21641000000,-0.430568266118,0.0388746032321,3.05256912837
21661000000,-0.43028513388,0.0413854349112,3.04663177316
21681000000,-0.429986833729,0.0438947791864,3.04069448478
21701000000,-0.429673469172,0.0464025575247,3.03475645185
21721000000,-0.429344896454,0.0489086650203,3.02881858609
21741000000,-0.429001150469,0.051413014324,3.022881484
21761000000,-0.428642361176,0.0539155309455,3.01694285522
21781000000,-0.428268371412,0.0564161052958,3.01100586715
21801000000,-0.427879365672,0.0589146711014,3.00506715113
21821000000,-0.427475225146,0.0614111223346,2.99912931253
21841000000,-0.427055991045,0.0639053740043,2.99319148577
21861000000,-0.426621660606,0.0663973347257,2.98725469887
21881000000,-0.426172309746,0.0688869256272,2.98131590574
21901000000,-0.42570789053,0.0713740483944,2.97537920611
21921000000,-0.425228449091,0.0738586196586,2.96944254677
21941000000,-0.424734020462,0.0763405548021,2.96350381136
21961000000,-0.424224581421,0.0788197588048,2.95756722591
21981000000,-0.423700180636,0.0812961495742,2.95162851065
22001000000,-0.423160809786,0.083769634436,2.94569199014
22021000000,-0.422606498274,0.0862401278444,2.93975329984
22041000000,-0.422037265498,0.0887075424309,2.93381683533
22061000000,-0.421453125058,0.0911717895923,2.92787817442
22081000000,-0.420854104225,0.0936327836669,2.92194175696
22101000000,-0.42024022174,0.0960904372293,2.91600312947
22121000000,-0.419611490742,0.0985446615,2.9100667501
22141000000,-0.41896792759,0.100995368317,2.90412815994
22161000000,-0.418309568337,0.103442474316,2.89819180969
22181000000,-0.417636428045,0.105885891142,2.89225326035
22201000000,-0.416948526417,0.108325531487,2.88631693024
22221000000,-0.416245879571,0.11076130702,2.88037734865
22241000000,-0.415528525467,0.113193135238,2.87444102972
22261000000,-0.414796480063,0.115620927835,2.86850259641
22281000000,-0.414049768442,0.118044598932,2.86256524243
22301000000,-0.413288412807,0.120464061822,2.85662790213
22322000000,-0.41251243923,0.1228792309,2.85069157861
22341000000,-0.411721873115,0.125290020497,2.84475424421
22361000000,-0.410916740421,0.127696344903,2.83881790471
22381000000,-0.410097067579,0.130098118605,2.83287869429
22402000000,-0.409262881505,0.132495256272,2.82694233004
22421000000,-0.408414209601,0.134887672729,2.82100595006
22441000000,-0.40755108087,0.137275283335,2.81506703581
22461000000,-0.406673511938,0.139657999184,2.809129866
22481000000,-0.406673511938,0.139657999184,2.809129866
22501000000,-0.405193752302,0.14357714426,2.79933585777
22521000000,-0.404278100244,0.145946494293,2.79339937683
22541000000,-0.40334929217,0.148311077241,2.78746190159
22561000000,-0.402405024488,0.150669951379,2.78152479472
22581000000,-0.401446496708,0.153023458105,2.77558822187
22601000000,-0.400473740594,0.155371513303,2.76965172721
22621000000,-0.399486788078,0.15771403384,2.76371508274
22641000000,-0.39848567171,0.160050936406,2.75777839866
22661000000,-0.397470424535,0.162382137828,2.75184199685
22681000000,-0.396441080078,0.164707555124,2.74590522684
22701000000,-0.395397672341,0.167027105505,2.73996873336
